{"type": "geojson", "data": {"type": "FeatureCollection", "features": [{"type": "Feature", "properties": {"name": "SJR", "description": "<div style=\"width:100%;\">SJR: <b>Building</b>\n<br><span style=\"font-family: monospace\">building lowered into ground; assessment uncertain</span>\n<br><a href=\"thumbs/narvik-bunkers_SJR.jpg\" target=\"_blank\"><img width=\"100%\" src=\"thumbs/narvik-bunkers_SJR.jpg\"/></a>\n<br>68.55556,17.58615</div>", "iconImage": "u-red"}, "geometry": {"type": "Point", "coordinates": [17.58615, 68.55556]}}, {"type": "Feature", "properties": {"name": "BTL", "description": "<div style=\"width:100%;\">BTL: <b>Battle Station</b>\n<br><span style=\"font-family: monospace\">battle station at end of a trench; trench</span>\n<br><a href=\"thumbs/narvik-bunkers_BTL.jpg\" target=\"_blank\"><img width=\"100%\" src=\"thumbs/narvik-bunkers_BTL.jpg\"/></a>\n<br>68.44772,17.44108</div>", "iconImage": "circle-red"}, "geometry": {"type": "Point", "coordinates": [17.44108, 68.44772]}}, {"type": "Feature", "properties": {"name": "CHH", "description": "<div style=\"width:100%;\">CHH: <b>Building</b>\n<br><span style=\"font-family: monospace\">building lowered into ground; trench</span>\n<br><a href=\"thumbs/narvik-bunkers_CHH.jpg\" target=\"_blank\"><img width=\"100%\" src=\"thumbs/narvik-bunkers_CHH.jpg\"/></a>\n<br>68.51079,17.09019</div>", "iconImage": "u-red"}, "geometry": {"type": "Point", "coordinates": [17.09019, 68.51079]}}, {"type": "Feature", "properties": {"name": "PKR", "description": "<div style=\"width:100%;\">PKR: <b>Building</b>\n<br><span style=\"font-family: monospace\">low foundations of building; unknown origin</span>\n<br><a href=\"thumbs/narvik-bunkers_PKR.jpg\" target=\"_blank\"><img width=\"100%\" src=\"thumbs/narvik-bunkers_PKR.jpg\"/></a>\n<br>68.39909,17.9666</div>", "iconImage": "circle-red"}, "geometry": {"type": "Point", "coordinates": [17.9666, 68.39909]}}, {"type": "Feature", "properties": {"name": "GMY", "description": "<div style=\"width:100%;\">GMY: <b>Battle Station</b>\n<br><span style=\"font-family: monospace\">low-walled battle station</span>\n<br><a href=\"thumbs/narvik-bunkers_GMY.jpg\" target=\"_blank\"><img width=\"100%\" src=\"thumbs/narvik-bunkers_GMY.jpg\"/></a>\n<br>68.4434,17.39847</div>", "iconImage": "circle-red"}, "geometry": {"type": "Point", "coordinates": [17.39847, 68.4434]}}, {"type": "Feature", "properties": {"name": "LGP", "description": "<div style=\"width:100%;\">LGP: <b>Bunker</b>\n<br><span style=\"font-family: monospace\">bunker with blast protection</span>\n<br><a href=\"thumbs/narvik-bunkers_LGP.jpg\" target=\"_blank\"><img width=\"100%\" src=\"thumbs/narvik-bunkers_LGP.jpg\"/></a>\n<br>68.44753,17.41207</div>", "iconImage": "circle-red"}, "geometry": {"type": "Point", "coordinates": [17.41207, 68.44753]}}, {"type": "Feature", "properties": {"name": "LGD", "description": "<div style=\"width:100%;\">LGD: <b>Bunker</b>\n<br><span style=\"font-family: monospace\">bunker; damaged</span>\n<br><a href=\"thumbs/narvik-bunkers_LGD.jpg\" target=\"_blank\"><img width=\"100%\" src=\"thumbs/narvik-bunkers_LGD.jpg\"/></a>\n<br>68.43911,17.38751</div>", "iconImage": "circle-red"}, "geometry": {"type": "Point", "coordinates": [17.38751, 68.43911]}}, {"type": "Feature", "properties": {"name": "VPJ", "description": "<div style=\"width:100%;\">VPJ: <b>Tunnel</b>\n<br><span style=\"font-family: monospace\">tunnel with door; narrow tunnel entrance; \"other\" door type</span>\n<br><a href=\"thumbs/narvik-bunkers_VPJ.jpg\" target=\"_blank\"><img width=\"100%\" src=\"thumbs/narvik-bunkers_VPJ.jpg\"/></a>\n<br>68.43611,17.4328</div>", "iconImage": "rect-red"}, "geometry": {"type": "Point", "coordinates": [17.4328, 68.43611]}}, {"type": "Feature", "properties": {"name": "NRT", "description": "<div style=\"width:100%;\">NRT: <b>Trench</b>\n<br><span style=\"font-family: monospace\">deep and wide trench; unfinished; probably Norwegian post-war construction</span>\n<br><a href=\"thumbs/narvik-bunkers_NRT.jpg\" target=\"_blank\"><img width=\"100%\" src=\"thumbs/narvik-bunkers_NRT.jpg\"/></a>\n<br>68.41483,16.55747</div>", "iconImage": "circle-red"}, "geometry": {"type": "Point", "coordinates": [16.55747, 68.41483]}}, {"type": "Feature", "properties": {"name": "DLM", "description": "<div style=\"width:100%;\">DLM: <b>Building</b>\n<br><span style=\"font-family: monospace\">low foundations of building</span>\n<br><a href=\"thumbs/narvik-bunkers_DLM.jpg\" target=\"_blank\"><img width=\"100%\" src=\"thumbs/narvik-bunkers_DLM.jpg\"/></a>\n<br>68.471,17.48413</div>", "iconImage": "circle-red"}, "geometry": {"type": "Point", "coordinates": [17.48413, 68.471]}}, {"type": "Feature", "properties": {"name": "SSR", "description": "<div style=\"width:100%;\">SSR: <b>Building</b>\n<br><span style=\"font-family: monospace\">bunker-style building; building lowered into ground</span>\n<br><a href=\"thumbs/narvik-bunkers_SSR.jpg\" target=\"_blank\"><img width=\"100%\" src=\"thumbs/narvik-bunkers_SSR.jpg\"/></a>\n<br>68.47104,17.48708</div>", "iconImage": "circle-red"}, "geometry": {"type": "Point", "coordinates": [17.48708, 68.47104]}}, {"type": "Feature", "properties": {"name": "BHP", "description": "<div style=\"width:100%;\">BHP: <b>Pit</b>\n<br><span style=\"font-family: monospace\">pit</span>\n<br><a href=\"thumbs/narvik-bunkers_BHP.jpg\" target=\"_blank\"><img width=\"100%\" src=\"thumbs/narvik-bunkers_BHP.jpg\"/></a>\n<br>68.43359,17.38759</div>", "iconImage": "u-red"}, "geometry": {"type": "Point", "coordinates": [17.38759, 68.43359]}}, {"type": "Feature", "properties": {"name": "SSG", "description": "<div style=\"width:100%;\">SSG: <b>Tunnel</b>\n<br><span style=\"font-family: monospace\">open tunnel, masonry; narrow tunnel entrance; damaged</span>\n<br><a href=\"thumbs/narvik-bunkers_SSG.jpg\" target=\"_blank\"><img width=\"100%\" src=\"thumbs/narvik-bunkers_SSG.jpg\"/></a>\n<br>68.43093,17.42234</div>", "iconImage": "rect-red"}, "geometry": {"type": "Point", "coordinates": [17.42234, 68.43093]}}, {"type": "Feature", "properties": {"name": "DJH", "description": "<div style=\"width:100%;\">DJH: <b>Foundation</b>\n<br><span style=\"font-family: monospace\">rock leveled</span>\n<br><a href=\"thumbs/narvik-bunkers_DJH.jpg\" target=\"_blank\"><img width=\"100%\" src=\"thumbs/narvik-bunkers_DJH.jpg\"/></a>\n<br>68.5375,17.4919</div>", "iconImage": "u-red"}, "geometry": {"type": "Point", "coordinates": [17.4919, 68.5375]}}, {"type": "Feature", "properties": {"name": "YJT", "description": "<div style=\"width:100%;\">YJT: <b>Tunnel</b>\n<br><span style=\"font-family: monospace\">shelter-like tunnel stub; unknown origin</span>\n<br><a href=\"thumbs/narvik-bunkers_YJT.jpg\" target=\"_blank\"><img width=\"100%\" src=\"thumbs/narvik-bunkers_YJT.jpg\"/></a>\n<br>68.35875,17.00054</div>", "iconImage": "rect-red"}, "geometry": {"type": "Point", "coordinates": [17.00054, 68.35875]}}, {"type": "Feature", "properties": {"name": "BCM", "description": "<div style=\"width:100%;\">BCM: <b>Trench</b>\n<br><span style=\"font-family: monospace\">trench</span>\n<br><a href=\"thumbs/narvik-bunkers_BCM.jpg\" target=\"_blank\"><img width=\"100%\" src=\"thumbs/narvik-bunkers_BCM.jpg\"/></a>\n<br>68.50624,17.08698</div>", "iconImage": "circle-red"}, "geometry": {"type": "Point", "coordinates": [17.08698, 68.50624]}}, {"type": "Feature", "properties": {"name": "CYC", "description": "<div style=\"width:100%;\">CYC: <b>Bunker</b>\n<br><span style=\"font-family: monospace\">bunker</span>\n<br><a href=\"thumbs/narvik-bunkers_CYC.jpg\" target=\"_blank\"><img width=\"100%\" src=\"thumbs/narvik-bunkers_CYC.jpg\"/></a>\n<br>68.41557,16.56457</div>", "iconImage": "circle-red"}, "geometry": {"type": "Point", "coordinates": [16.56457, 68.41557]}}, {"type": "Feature", "properties": {"name": "ZNM", "description": "<div style=\"width:100%;\">ZNM: <b>Trench</b>\n<br><span style=\"font-family: monospace\">trench</span>\n<br><a href=\"thumbs/narvik-bunkers_ZNM.jpg\" target=\"_blank\"><img width=\"100%\" src=\"thumbs/narvik-bunkers_ZNM.jpg\"/></a>\n<br>68.43556,17.39427</div>", "iconImage": "circle-red"}, "geometry": {"type": "Point", "coordinates": [17.39427, 68.43556]}}, {"type": "Feature", "properties": {"name": "MNC", "description": "<div style=\"width:100%;\">MNC: <b>Battle Station</b>\n<br><span style=\"font-family: monospace\">high-walled battle station; damaged</span>\n<br><a href=\"thumbs/narvik-bunkers_MNC.jpg\" target=\"_blank\"><img width=\"100%\" src=\"thumbs/narvik-bunkers_MNC.jpg\"/></a>\n<br>68.55719,17.57857</div>", "iconImage": "circle-red"}, "geometry": {"type": "Point", "coordinates": [17.57857, 68.55719]}}, {"type": "Feature", "properties": {"name": "RZL", "description": "<div style=\"width:100%;\">RZL: <b>Bunker</b>\n<br><span style=\"font-family: monospace\">bunker; overbuilt</span>\n<br><a href=\"thumbs/narvik-bunkers_RZL.jpg\" target=\"_blank\"><img width=\"100%\" src=\"thumbs/narvik-bunkers_RZL.jpg\"/></a>\n<br>68.43076,17.42612</div>", "iconImage": "circle-red"}, "geometry": {"type": "Point", "coordinates": [17.42612, 68.43076]}}, {"type": "Feature", "properties": {"name": "DVC", "description": "<div style=\"width:100%;\">DVC: <b>Tunnel</b>\n<br><span style=\"font-family: monospace\">open tunnel, no masonry; narrow tunnel entrance</span>\n<br><a href=\"thumbs/narvik-bunkers_DVC.jpg\" target=\"_blank\"><img width=\"100%\" src=\"thumbs/narvik-bunkers_DVC.jpg\"/></a>\n<br>68.54477,17.50057</div>", "iconImage": "rect-red"}, "geometry": {"type": "Point", "coordinates": [17.50057, 68.54477]}}, {"type": "Feature", "properties": {"name": "PML", "description": "<div style=\"width:100%;\">PML: <b>Pit</b>\n<br><span style=\"font-family: monospace\">pit</span>\n<br><a href=\"thumbs/narvik-bunkers_PML.jpg\" target=\"_blank\"><img width=\"100%\" src=\"thumbs/narvik-bunkers_PML.jpg\"/></a>\n<br>68.43746,17.39411</div>", "iconImage": "u-red"}, "geometry": {"type": "Point", "coordinates": [17.39411, 68.43746]}}, {"type": "Feature", "properties": {"name": "GPH", "description": "<div style=\"width:100%;\">GPH: <b>Marine Launch</b>\n<br><span style=\"font-family: monospace\">marine launch point</span>\n<br><a href=\"thumbs/narvik-bunkers_GPH.jpg\" target=\"_blank\"><img width=\"100%\" src=\"thumbs/narvik-bunkers_GPH.jpg\"/></a>\n<br>68.44743,17.41075</div>", "iconImage": "u-red"}, "geometry": {"type": "Point", "coordinates": [17.41075, 68.44743]}}, {"type": "Feature", "properties": {"name": "VHC", "description": "<div style=\"width:100%;\">VHC: <b>Battle Station</b>\n<br><span style=\"font-family: monospace\">battle station</span>\n<br><a href=\"thumbs/narvik-bunkers_VHC.jpg\" target=\"_blank\"><img width=\"100%\" src=\"thumbs/narvik-bunkers_VHC.jpg\"/></a>\n<br>68.54777,17.53155</div>", "iconImage": "circle-red"}, "geometry": {"type": "Point", "coordinates": [17.53155, 68.54777]}}, {"type": "Feature", "properties": {"name": "DXT", "description": "<div style=\"width:100%;\">DXT: <b>Building</b>\n<br><span style=\"font-family: monospace\">building lowered into ground</span>\n<br><a href=\"thumbs/narvik-bunkers_DXT.jpg\" target=\"_blank\"><img width=\"100%\" src=\"thumbs/narvik-bunkers_DXT.jpg\"/></a>\n<br>68.43593,17.39473</div>", "iconImage": "u-red"}, "geometry": {"type": "Point", "coordinates": [17.39473, 68.43593]}}, {"type": "Feature", "properties": {"name": "GCV", "description": "<div style=\"width:100%;\">GCV: <b>Battle Station</b>\n<br><span style=\"font-family: monospace\">battle station at end of a trench</span>\n<br><a href=\"thumbs/narvik-bunkers_GCV.jpg\" target=\"_blank\"><img width=\"100%\" src=\"thumbs/narvik-bunkers_GCV.jpg\"/></a>\n<br>68.50467,17.0767</div>", "iconImage": "circle-red"}, "geometry": {"type": "Point", "coordinates": [17.0767, 68.50467]}}, {"type": "Feature", "properties": {"name": "WDW", "description": "<div style=\"width:100%;\">WDW: <b>Building</b>\n<br><span style=\"font-family: monospace\">low foundations of building</span>\n<br><a href=\"thumbs/narvik-bunkers_WDW.jpg\" target=\"_blank\"><img width=\"100%\" src=\"thumbs/narvik-bunkers_WDW.jpg\"/></a>\n<br>68.45771,17.01971</div>", "iconImage": "circle-red"}, "geometry": {"type": "Point", "coordinates": [17.01971, 68.45771]}}, {"type": "Feature", "properties": {"name": "VNW", "description": "<div style=\"width:100%;\">VNW: <b>Bunker</b>\n<br><span style=\"font-family: monospace\">bunker with locked entrance; modernized for post-war use</span>\n<br><a href=\"thumbs/narvik-bunkers_VNW.jpg\" target=\"_blank\"><img width=\"100%\" src=\"thumbs/narvik-bunkers_VNW.jpg\"/></a>\n<br>68.45359,16.70952</div>", "iconImage": "circle-red"}, "geometry": {"type": "Point", "coordinates": [16.70952, 68.45359]}}, {"type": "Feature", "properties": {"name": "PRL", "description": "<div style=\"width:100%;\">PRL: <b>Building</b>\n<br><span style=\"font-family: monospace\">building walls; building lowered into ground</span>\n<br><a href=\"thumbs/narvik-bunkers_PRL.jpg\" target=\"_blank\"><img width=\"100%\" src=\"thumbs/narvik-bunkers_PRL.jpg\"/></a>\n<br>68.43417,17.39395</div>", "iconImage": "circle-red"}, "geometry": {"type": "Point", "coordinates": [17.39395, 68.43417]}}, {"type": "Feature", "properties": {"name": "VZS", "description": "<div style=\"width:100%;\">VZS: <b>Tunnel</b>\n<br><span style=\"font-family: monospace\">open tunnel, masonry</span>\n<br><a href=\"thumbs/narvik-bunkers_VZS.jpg\" target=\"_blank\"><img width=\"100%\" src=\"thumbs/narvik-bunkers_VZS.jpg\"/></a>\n<br>68.38302,17.04992</div>", "iconImage": "rect-red"}, "geometry": {"type": "Point", "coordinates": [17.04992, 68.38302]}}, {"type": "Feature", "properties": {"name": "KCG", "description": "<div style=\"width:100%;\">KCG: <b>Bunker</b>\n<br><span style=\"font-family: monospace\">bunker with blast protection; multiple bunker rooms; 3-direction roofed lookout; permanently closed; probably Norwegian post-war construction</span>\n<br><a href=\"thumbs/narvik-bunkers_KCG.jpg\" target=\"_blank\"><img width=\"100%\" src=\"thumbs/narvik-bunkers_KCG.jpg\"/></a>\n<br>68.41517,16.56635</div>", "iconImage": "circle-red"}, "geometry": {"type": "Point", "coordinates": [16.56635, 68.41517]}}, {"type": "Feature", "properties": {"name": "LJV", "description": "<div style=\"width:100%;\">LJV: <b>Building</b>\n<br><span style=\"font-family: monospace\">low foundations of building</span>\n<br><a href=\"thumbs/narvik-bunkers_LJV.jpg\" target=\"_blank\"><img width=\"100%\" src=\"thumbs/narvik-bunkers_LJV.jpg\"/></a>\n<br>68.44118,17.39704</div>", "iconImage": "circle-red"}, "geometry": {"type": "Point", "coordinates": [17.39704, 68.44118]}}, {"type": "Feature", "properties": {"name": "WJB", "description": "<div style=\"width:100%;\">WJB: <b>Tunnel</b>\n<br><span style=\"font-family: monospace\">tunnel entrance walled shut; narrow tunnel entrance</span>\n<br><a href=\"thumbs/narvik-bunkers_WJB.jpg\" target=\"_blank\"><img width=\"100%\" src=\"thumbs/narvik-bunkers_WJB.jpg\"/></a>\n<br>68.43122,17.42708</div>", "iconImage": "rect-red"}, "geometry": {"type": "Point", "coordinates": [17.42708, 68.43122]}}, {"type": "Feature", "properties": {"name": "RRG", "description": "<div style=\"width:100%;\">RRG: <b>Platform</b>\n<br><span style=\"font-family: monospace\">small concrete platform/pedestal; unknown origin</span>\n<br><a href=\"thumbs/narvik-bunkers_RRG.jpg\" target=\"_blank\"><img width=\"100%\" src=\"thumbs/narvik-bunkers_RRG.jpg\"/></a>\n<br>68.43479,17.67323</div>", "iconImage": "circle-red"}, "geometry": {"type": "Point", "coordinates": [17.67323, 68.43479]}}, {"type": "Feature", "properties": {"name": "JBG", "description": "<div style=\"width:100%;\">JBG: <b>Bunker</b>\n<br><span style=\"font-family: monospace\">bunker with straight entrance</span>\n<br><a href=\"thumbs/narvik-bunkers_JBG.jpg\" target=\"_blank\"><img width=\"100%\" src=\"thumbs/narvik-bunkers_JBG.jpg\"/></a>\n<br>68.37204,17.60932</div>", "iconImage": "circle-red"}, "geometry": {"type": "Point", "coordinates": [17.60932, 68.37204]}}, {"type": "Feature", "properties": {"name": "JJQ", "description": "<div style=\"width:100%;\">JJQ: <b>Unidentified</b>\n<br><span style=\"font-family: monospace\">unidentified; unknown origin</span>\n<br><a href=\"thumbs/narvik-bunkers_JJQ.jpg\" target=\"_blank\"><img width=\"100%\" src=\"thumbs/narvik-bunkers_JJQ.jpg\"/></a>\n<br>68.53031,17.56829</div>", "iconImage": "circle-red"}, "geometry": {"type": "Point", "coordinates": [17.56829, 68.53031]}}, {"type": "Feature", "properties": {"name": "ZBC", "description": "<div style=\"width:100%;\">ZBC: <b>Building</b>\n<br><span style=\"font-family: monospace\">low foundations of building; unknown origin</span>\n<br><a href=\"thumbs/narvik-bunkers_ZBC.jpg\" target=\"_blank\"><img width=\"100%\" src=\"thumbs/narvik-bunkers_ZBC.jpg\"/></a>\n<br>68.39966,17.96643</div>", "iconImage": "circle-red"}, "geometry": {"type": "Point", "coordinates": [17.96643, 68.39966]}}, {"type": "Feature", "properties": {"name": "SHJ", "description": "<div style=\"width:100%;\">SHJ: <b>Trench</b>\n<br><span style=\"font-family: monospace\">lookout</span>\n<br><a href=\"thumbs/narvik-bunkers_SHJ.jpg\" target=\"_blank\"><img width=\"100%\" src=\"thumbs/narvik-bunkers_SHJ.jpg\"/></a>\n<br>68.41425,16.56489</div>", "iconImage": "circle-red"}, "geometry": {"type": "Point", "coordinates": [16.56489, 68.41425]}}, {"type": "Feature", "properties": {"name": "NTC", "description": "<div style=\"width:100%;\">NTC: <b>Bunker</b>\n<br><span style=\"font-family: monospace\">bunker with blast protection</span>\n<br><a href=\"thumbs/narvik-bunkers_NTC.jpg\" target=\"_blank\"><img width=\"100%\" src=\"thumbs/narvik-bunkers_NTC.jpg\"/></a>\n<br>68.41839,17.3046</div>", "iconImage": "circle-red"}, "geometry": {"type": "Point", "coordinates": [17.3046, 68.41839]}}, {"type": "Feature", "properties": {"name": "JSG", "description": "<div style=\"width:100%;\">JSG: <b>Battle Station</b>\n<br><span style=\"font-family: monospace\">low-walled battle station</span>\n<br><a href=\"thumbs/narvik-bunkers_JSG.jpg\" target=\"_blank\"><img width=\"100%\" src=\"thumbs/narvik-bunkers_JSG.jpg\"/></a>\n<br>68.47098,17.48684</div>", "iconImage": "circle-red"}, "geometry": {"type": "Point", "coordinates": [17.48684, 68.47098]}}, {"type": "Feature", "properties": {"name": "TVP", "description": "<div style=\"width:100%;\">TVP: <b>Bunker</b>\n<br><span style=\"font-family: monospace\">ammunition bunker/shelter; walled battle station</span>\n<br><a href=\"thumbs/narvik-bunkers_TVP.jpg\" target=\"_blank\"><img width=\"100%\" src=\"thumbs/narvik-bunkers_TVP.jpg\"/></a>\n<br>68.43548,17.3944</div>", "iconImage": "circle-red"}, "geometry": {"type": "Point", "coordinates": [17.3944, 68.43548]}}, {"type": "Feature", "properties": {"name": "QQG", "description": "<div style=\"width:100%;\">QQG: <b>Pit</b>\n<br><span style=\"font-family: monospace\">pit</span>\n<br><a href=\"thumbs/narvik-bunkers_QQG.jpg\" target=\"_blank\"><img width=\"100%\" src=\"thumbs/narvik-bunkers_QQG.jpg\"/></a>\n<br>68.43401,17.3854</div>", "iconImage": "u-red"}, "geometry": {"type": "Point", "coordinates": [17.3854, 68.43401]}}, {"type": "Feature", "properties": {"name": "LLD", "description": "<div style=\"width:100%;\">LLD: <b>Bunker</b>\n<br><span style=\"font-family: monospace\">bunker; block construction</span>\n<br><a href=\"thumbs/narvik-bunkers_LLD.jpg\" target=\"_blank\"><img width=\"100%\" src=\"thumbs/narvik-bunkers_LLD.jpg\"/></a>\n<br>68.4663,17.47777</div>", "iconImage": "circle-red"}, "geometry": {"type": "Point", "coordinates": [17.47777, 68.4663]}}, {"type": "Feature", "properties": {"name": "LQD", "description": "<div style=\"width:100%;\">LQD: <b>Battle Station</b>\n<br><span style=\"font-family: monospace\">embrasure</span>\n<br><a href=\"thumbs/narvik-bunkers_LQD.jpg\" target=\"_blank\"><img width=\"100%\" src=\"thumbs/narvik-bunkers_LQD.jpg\"/></a>\n<br>68.44333,17.39611</div>", "iconImage": "circle-red"}, "geometry": {"type": "Point", "coordinates": [17.39611, 68.44333]}}, {"type": "Feature", "properties": {"name": "BYW", "description": "<div style=\"width:100%;\">BYW: <b>Tunnel</b>\n<br><span style=\"font-family: monospace\">open tunnel, no masonry; narrow tunnel entrance</span>\n<br><a href=\"thumbs/narvik-bunkers_BYW.jpg\" target=\"_blank\"><img width=\"100%\" src=\"thumbs/narvik-bunkers_BYW.jpg\"/></a>\n<br>68.42737,17.44676</div>", "iconImage": "rect-red"}, "geometry": {"type": "Point", "coordinates": [17.44676, 68.42737]}}, {"type": "Feature", "properties": {"name": "RSZ", "description": "<div style=\"width:100%;\">RSZ: <b>Trench</b>\n<br><span style=\"font-family: monospace\">lookout</span>\n<br><a href=\"thumbs/narvik-bunkers_RSZ.jpg\" target=\"_blank\"><img width=\"100%\" src=\"thumbs/narvik-bunkers_RSZ.jpg\"/></a>\n<br>68.41934,16.63887</div>", "iconImage": "circle-red"}, "geometry": {"type": "Point", "coordinates": [16.63887, 68.41934]}}, {"type": "Feature", "properties": {"name": "MSY", "description": "<div style=\"width:100%;\">MSY: <b>Bunker</b>\n<br><span style=\"font-family: monospace\">bunker with straight entrance; embrasure</span>\n<br><a href=\"thumbs/narvik-bunkers_MSY.jpg\" target=\"_blank\"><img width=\"100%\" src=\"thumbs/narvik-bunkers_MSY.jpg\"/></a>\n<br>68.46464,17.47633</div>", "iconImage": "circle-red"}, "geometry": {"type": "Point", "coordinates": [17.47633, 68.46464]}}, {"type": "Feature", "properties": {"name": "KDC", "description": "<div style=\"width:100%;\">KDC: <b>Tunnel</b>\n<br><span style=\"font-family: monospace\">tunnel with barricaded entrance; narrow tunnel entrance; \"other\" door type</span>\n<br><a href=\"thumbs/narvik-bunkers_KDC.jpg\" target=\"_blank\"><img width=\"100%\" src=\"thumbs/narvik-bunkers_KDC.jpg\"/></a>\n<br>68.43528,17.39677</div>", "iconImage": "rect-red"}, "geometry": {"type": "Point", "coordinates": [17.39677, 68.43528]}}, {"type": "Feature", "properties": {"name": "YSK", "description": "<div style=\"width:100%;\">YSK: <b>Tunnel</b>\n<br><span style=\"font-family: monospace\">open tunnel, masonry; narrow tunnel entrance; bunker with blast protection</span>\n<br><a href=\"thumbs/narvik-bunkers_YSK.jpg\" target=\"_blank\"><img width=\"100%\" src=\"thumbs/narvik-bunkers_YSK.jpg\"/></a>\n<br>68.46639,17.47356</div>", "iconImage": "rect-red"}, "geometry": {"type": "Point", "coordinates": [17.47356, 68.46639]}}, {"type": "Feature", "properties": {"name": "GDS", "description": "<div style=\"width:100%;\">GDS: <b>Battle Station</b>\n<br><span style=\"font-family: monospace\">battle station</span>\n<br><a href=\"thumbs/narvik-bunkers_GDS.jpg\" target=\"_blank\"><img width=\"100%\" src=\"thumbs/narvik-bunkers_GDS.jpg\"/></a>\n<br>68.54385,17.57757</div>", "iconImage": "circle-red"}, "geometry": {"type": "Point", "coordinates": [17.57757, 68.54385]}}, {"type": "Feature", "properties": {"name": "YZG", "description": "<div style=\"width:100%;\">YZG: <b>Battle Station</b>\n<br><span style=\"font-family: monospace\">battle station</span>\n<br><a href=\"thumbs/narvik-bunkers_YZG.jpg\" target=\"_blank\"><img width=\"100%\" src=\"thumbs/narvik-bunkers_YZG.jpg\"/></a>\n<br>68.50525,16.93671</div>", "iconImage": "circle-red"}, "geometry": {"type": "Point", "coordinates": [16.93671, 68.50525]}}, {"type": "Feature", "properties": {"name": "PZC", "description": "<div style=\"width:100%;\">PZC: <b>Battle Station</b>\n<br><span style=\"font-family: monospace\">battle platform</span>\n<br><a href=\"thumbs/narvik-bunkers_PZC.jpg\" target=\"_blank\"><img width=\"100%\" src=\"thumbs/narvik-bunkers_PZC.jpg\"/></a>\n<br>68.41988,17.30034</div>", "iconImage": "circle-red"}, "geometry": {"type": "Point", "coordinates": [17.30034, 68.41988]}}, {"type": "Feature", "properties": {"name": "WCY", "description": "<div style=\"width:100%;\">WCY: <b>Tunnel</b>\n<br><span style=\"font-family: monospace\">shelter-like tunnel stub</span>\n<br><a href=\"thumbs/narvik-bunkers_WCY.jpg\" target=\"_blank\"><img width=\"100%\" src=\"thumbs/narvik-bunkers_WCY.jpg\"/></a>\n<br>68.44208,17.4104</div>", "iconImage": "rect-red"}, "geometry": {"type": "Point", "coordinates": [17.4104, 68.44208]}}, {"type": "Feature", "properties": {"name": "PPR", "description": "<div style=\"width:100%;\">PPR: <b>Bunker</b>\n<br><span style=\"font-family: monospace\">bunker with straight entrance</span>\n<br><a href=\"thumbs/narvik-bunkers_PPR.jpg\" target=\"_blank\"><img width=\"100%\" src=\"thumbs/narvik-bunkers_PPR.jpg\"/></a>\n<br>68.3818,17.04911</div>", "iconImage": "circle-red"}, "geometry": {"type": "Point", "coordinates": [17.04911, 68.3818]}}, {"type": "Feature", "properties": {"name": "ZPV", "description": "<div style=\"width:100%;\">ZPV: <b>Battle Station</b>\n<br><span style=\"font-family: monospace\">low-walled battle station; trench</span>\n<br><a href=\"thumbs/narvik-bunkers_ZPV.jpg\" target=\"_blank\"><img width=\"100%\" src=\"thumbs/narvik-bunkers_ZPV.jpg\"/></a>\n<br>68.52573,17.00374</div>", "iconImage": "circle-red"}, "geometry": {"type": "Point", "coordinates": [17.00374, 68.52573]}}, {"type": "Feature", "properties": {"name": "MCX", "description": "<div style=\"width:100%;\">MCX: <b>Pit</b>\n<br><span style=\"font-family: monospace\">pit</span>\n<br><a href=\"thumbs/narvik-bunkers_MCX.jpg\" target=\"_blank\"><img width=\"100%\" src=\"thumbs/narvik-bunkers_MCX.jpg\"/></a>\n<br>68.44735,17.41463</div>", "iconImage": "u-red"}, "geometry": {"type": "Point", "coordinates": [17.41463, 68.44735]}}, {"type": "Feature", "properties": {"name": "NMJ", "description": "<div style=\"width:100%;\">NMJ: <b>Pit</b>\n<br><span style=\"font-family: monospace\">pit; trench</span>\n<br><a href=\"thumbs/narvik-bunkers_NMJ.jpg\" target=\"_blank\"><img width=\"100%\" src=\"thumbs/narvik-bunkers_NMJ.jpg\"/></a>\n<br>68.41928,17.30817</div>", "iconImage": "u-red"}, "geometry": {"type": "Point", "coordinates": [17.30817, 68.41928]}}, {"type": "Feature", "properties": {"name": "XMT", "description": "<div style=\"width:100%;\">XMT: <b>Building</b>\n<br><span style=\"font-family: monospace\">low foundations of building; building lowered into ground</span>\n<br><a href=\"thumbs/narvik-bunkers_XMT.jpg\" target=\"_blank\"><img width=\"100%\" src=\"thumbs/narvik-bunkers_XMT.jpg\"/></a>\n<br>68.37207,17.42211</div>", "iconImage": "circle-red"}, "geometry": {"type": "Point", "coordinates": [17.42211, 68.37207]}}, {"type": "Feature", "properties": {"name": "RNY", "description": "<div style=\"width:100%;\">RNY: <b>Tunnel</b>\n<br><span style=\"font-family: monospace\">open tunnel, masonry; narrow tunnel entrance</span>\n<br><a href=\"thumbs/narvik-bunkers_RNY.jpg\" target=\"_blank\"><img width=\"100%\" src=\"thumbs/narvik-bunkers_RNY.jpg\"/></a>\n<br>68.41957,17.30524</div>", "iconImage": "rect-red"}, "geometry": {"type": "Point", "coordinates": [17.30524, 68.41957]}}, {"type": "Feature", "properties": {"name": "RDV", "description": "<div style=\"width:100%;\">RDV: <b>Bunker</b>\n<br><span style=\"font-family: monospace\">ammunition bunker/shelter; walled battle station</span>\n<br><a href=\"thumbs/narvik-bunkers_RDV.jpg\" target=\"_blank\"><img width=\"100%\" src=\"thumbs/narvik-bunkers_RDV.jpg\"/></a>\n<br>68.43574,17.39545</div>", "iconImage": "circle-red"}, "geometry": {"type": "Point", "coordinates": [17.39545, 68.43574]}}, {"type": "Feature", "properties": {"name": "YBL", "description": "<div style=\"width:100%;\">YBL: <b>Bunker</b>\n<br><span style=\"font-family: monospace\">bunker with straight entrance; embrasure</span>\n<br><a href=\"thumbs/narvik-bunkers_YBL.jpg\" target=\"_blank\"><img width=\"100%\" src=\"thumbs/narvik-bunkers_YBL.jpg\"/></a>\n<br>68.49889,17.07701</div>", "iconImage": "circle-red"}, "geometry": {"type": "Point", "coordinates": [17.07701, 68.49889]}}, {"type": "Feature", "properties": {"name": "ZGG", "description": "<div style=\"width:100%;\">ZGG: <b>Battle Station</b>\n<br><span style=\"font-family: monospace\">low-walled battle station</span>\n<br><a href=\"thumbs/narvik-bunkers_ZGG.jpg\" target=\"_blank\"><img width=\"100%\" src=\"thumbs/narvik-bunkers_ZGG.jpg\"/></a>\n<br>68.45862,17.02111</div>", "iconImage": "circle-red"}, "geometry": {"type": "Point", "coordinates": [17.02111, 68.45862]}}, {"type": "Feature", "properties": {"name": "YGZ", "description": "<div style=\"width:100%;\">YGZ: <b>Building</b>\n<br><span style=\"font-family: monospace\">low foundations of building; unknown origin</span>\n<br><a href=\"thumbs/narvik-bunkers_YGZ.jpg\" target=\"_blank\"><img width=\"100%\" src=\"thumbs/narvik-bunkers_YGZ.jpg\"/></a>\n<br>68.4054,17.77631</div>", "iconImage": "circle-red"}, "geometry": {"type": "Point", "coordinates": [17.77631, 68.4054]}}, {"type": "Feature", "properties": {"name": "STC", "description": "<div style=\"width:100%;\">STC: <b>Foundation</b>\n<br><span style=\"font-family: monospace\">flat foundation</span>\n<br><a href=\"thumbs/narvik-bunkers_STC.jpg\" target=\"_blank\"><img width=\"100%\" src=\"thumbs/narvik-bunkers_STC.jpg\"/></a>\n<br>68.40981,17.43107</div>", "iconImage": "circle-red"}, "geometry": {"type": "Point", "coordinates": [17.43107, 68.40981]}}, {"type": "Feature", "properties": {"name": "SZM", "description": "<div style=\"width:100%;\">SZM: <b>Bunker</b>\n<br><span style=\"font-family: monospace\">bunker with straight entrance but no visibility</span>\n<br><a href=\"thumbs/narvik-bunkers_SZM.jpg\" target=\"_blank\"><img width=\"100%\" src=\"thumbs/narvik-bunkers_SZM.jpg\"/></a>\n<br>68.37111,17.25063</div>", "iconImage": "circle-red"}, "geometry": {"type": "Point", "coordinates": [17.25063, 68.37111]}}, {"type": "Feature", "properties": {"name": "HWR", "description": "<div style=\"width:100%;\">HWR: <b>Battle Station</b>\n<br><span style=\"font-family: monospace\">high-walled battle station; ammunition bunker/shelter</span>\n<br><a href=\"thumbs/narvik-bunkers_HWR.jpg\" target=\"_blank\"><img width=\"100%\" src=\"thumbs/narvik-bunkers_HWR.jpg\"/></a>\n<br>68.4584,17.02105</div>", "iconImage": "circle-red"}, "geometry": {"type": "Point", "coordinates": [17.02105, 68.4584]}}, {"type": "Feature", "properties": {"name": "YYH", "description": "<div style=\"width:100%;\">YYH: <b>Tunnel</b>\n<br><span style=\"font-family: monospace\">open tunnel, no masonry; unknown origin</span>\n<br><a href=\"thumbs/narvik-bunkers_YYH.jpg\" target=\"_blank\"><img width=\"100%\" src=\"thumbs/narvik-bunkers_YYH.jpg\"/></a>\n<br>68.44679,17.40824</div>", "iconImage": "rect-red"}, "geometry": {"type": "Point", "coordinates": [17.40824, 68.44679]}}, {"type": "Feature", "properties": {"name": "GYJ", "description": "<div style=\"width:100%;\">GYJ: <b>Pit</b>\n<br><span style=\"font-family: monospace\">pit</span>\n<br><a href=\"thumbs/narvik-bunkers_GYJ.jpg\" target=\"_blank\"><img width=\"100%\" src=\"thumbs/narvik-bunkers_GYJ.jpg\"/></a>\n<br>68.41724,17.30911</div>", "iconImage": "u-red"}, "geometry": {"type": "Point", "coordinates": [17.30911, 68.41724]}}, {"type": "Feature", "properties": {"name": "GSW", "description": "<div style=\"width:100%;\">GSW: <b>Battle Station</b>\n<br><span style=\"font-family: monospace\">high-walled battle station; ammunition bunker/shelter</span>\n<br><a href=\"thumbs/narvik-bunkers_GSW.jpg\" target=\"_blank\"><img width=\"100%\" src=\"thumbs/narvik-bunkers_GSW.jpg\"/></a>\n<br>68.49844,17.07756</div>", "iconImage": "circle-red"}, "geometry": {"type": "Point", "coordinates": [17.07756, 68.49844]}}, {"type": "Feature", "properties": {"name": "BWD", "description": "<div style=\"width:100%;\">BWD: <b>Tunnel</b>\n<br><span style=\"font-family: monospace\">open tunnel, no masonry; narrow tunnel entrance; damaged</span>\n<br><a href=\"thumbs/narvik-bunkers_BWD.jpg\" target=\"_blank\"><img width=\"100%\" src=\"thumbs/narvik-bunkers_BWD.jpg\"/></a>\n<br>68.4417,17.40921</div>", "iconImage": "rect-red"}, "geometry": {"type": "Point", "coordinates": [17.40921, 68.4417]}}, {"type": "Feature", "properties": {"name": "RMG", "description": "<div style=\"width:100%;\">RMG: <b>Foundation</b>\n<br><span style=\"font-family: monospace\">rock leveled</span>\n<br><a href=\"thumbs/narvik-bunkers_RMG.jpg\" target=\"_blank\"><img width=\"100%\" src=\"thumbs/narvik-bunkers_RMG.jpg\"/></a>\n<br>68.44736,17.44111</div>", "iconImage": "u-red"}, "geometry": {"type": "Point", "coordinates": [17.44111, 68.44736]}}, {"type": "Feature", "properties": {"name": "TKR", "description": "<div style=\"width:100%;\">TKR: <b>Battle Station</b>\n<br><span style=\"font-family: monospace\">battle station; lookout</span>\n<br><a href=\"thumbs/narvik-bunkers_TKR.jpg\" target=\"_blank\"><img width=\"100%\" src=\"thumbs/narvik-bunkers_TKR.jpg\"/></a>\n<br>68.47149,17.48462</div>", "iconImage": "circle-red"}, "geometry": {"type": "Point", "coordinates": [17.48462, 68.47149]}}, {"type": "Feature", "properties": {"name": "GKH", "description": "<div style=\"width:100%;\">GKH: <b>Pit</b>\n<br><span style=\"font-family: monospace\">pit</span>\n<br><a href=\"thumbs/narvik-bunkers_GKH.jpg\" target=\"_blank\"><img width=\"100%\" src=\"thumbs/narvik-bunkers_GKH.jpg\"/></a>\n<br>68.44267,17.39667</div>", "iconImage": "u-red"}, "geometry": {"type": "Point", "coordinates": [17.39667, 68.44267]}}, {"type": "Feature", "properties": {"name": "CGJ", "description": "<div style=\"width:100%;\">CGJ: <b>Bunker</b>\n<br><span style=\"font-family: monospace\">bunker with straight entrance</span>\n<br><a href=\"thumbs/narvik-bunkers_CGJ.jpg\" target=\"_blank\"><img width=\"100%\" src=\"thumbs/narvik-bunkers_CGJ.jpg\"/></a>\n<br>68.45551,16.71351</div>", "iconImage": "circle-red"}, "geometry": {"type": "Point", "coordinates": [16.71351, 68.45551]}}, {"type": "Feature", "properties": {"name": "BDV", "description": "<div style=\"width:100%;\">BDV: <b>Battle Station</b>\n<br><span style=\"font-family: monospace\">battle station; unknown origin</span>\n<br><a href=\"thumbs/narvik-bunkers_BDV.jpg\" target=\"_blank\"><img width=\"100%\" src=\"thumbs/narvik-bunkers_BDV.jpg\"/></a>\n<br>68.39382,17.82394</div>", "iconImage": "circle-red"}, "geometry": {"type": "Point", "coordinates": [17.82394, 68.39382]}}, {"type": "Feature", "properties": {"name": "LRZ", "description": "<div style=\"width:100%;\">LRZ: <b>Pit</b>\n<br><span style=\"font-family: monospace\">pit</span>\n<br><a href=\"thumbs/narvik-bunkers_LRZ.jpg\" target=\"_blank\"><img width=\"100%\" src=\"thumbs/narvik-bunkers_LRZ.jpg\"/></a>\n<br>68.52405,17.01378</div>", "iconImage": "u-red"}, "geometry": {"type": "Point", "coordinates": [17.01378, 68.52405]}}, {"type": "Feature", "properties": {"name": "MTW", "description": "<div style=\"width:100%;\">MTW: <b>Battle Station</b>\n<br><span style=\"font-family: monospace\">battle station at end of a trench; roof over trench; trench</span>\n<br><a href=\"thumbs/narvik-bunkers_MTW.jpg\" target=\"_blank\"><img width=\"100%\" src=\"thumbs/narvik-bunkers_MTW.jpg\"/></a>\n<br>68.4329,17.43604</div>", "iconImage": "circle-red"}, "geometry": {"type": "Point", "coordinates": [17.43604, 68.4329]}}, {"type": "Feature", "properties": {"name": "QHB", "description": "<div style=\"width:100%;\">QHB: <b>Battle Station</b>\n<br><span style=\"font-family: monospace\">low-walled battle station</span>\n<br><a href=\"thumbs/narvik-bunkers_QHB.jpg\" target=\"_blank\"><img width=\"100%\" src=\"thumbs/narvik-bunkers_QHB.jpg\"/></a>\n<br>68.43919,17.3957</div>", "iconImage": "circle-red"}, "geometry": {"type": "Point", "coordinates": [17.3957, 68.43919]}}, {"type": "Feature", "properties": {"name": "TNJ", "description": "<div style=\"width:100%;\">TNJ: <b>Building</b>\n<br><span style=\"font-family: monospace\">building lowered into ground</span>\n<br><a href=\"thumbs/narvik-bunkers_TNJ.jpg\" target=\"_blank\"><img width=\"100%\" src=\"thumbs/narvik-bunkers_TNJ.jpg\"/></a>\n<br>68.4199,17.31</div>", "iconImage": "u-red"}, "geometry": {"type": "Point", "coordinates": [17.31, 68.4199]}}, {"type": "Feature", "properties": {"name": "JPN", "description": "<div style=\"width:100%;\">JPN: <b>Trench</b>\n<br><span style=\"font-family: monospace\">trench</span>\n<br><a href=\"thumbs/narvik-bunkers_JPN.jpg\" target=\"_blank\"><img width=\"100%\" src=\"thumbs/narvik-bunkers_JPN.jpg\"/></a>\n<br>68.43575,17.39576</div>", "iconImage": "circle-red"}, "geometry": {"type": "Point", "coordinates": [17.39576, 68.43575]}}, {"type": "Feature", "properties": {"name": "TQP", "description": "<div style=\"width:100%;\">TQP: <b>Pit</b>\n<br><span style=\"font-family: monospace\">pit</span>\n<br><a href=\"thumbs/narvik-bunkers_TQP.jpg\" target=\"_blank\"><img width=\"100%\" src=\"thumbs/narvik-bunkers_TQP.jpg\"/></a>\n<br>68.43998,17.39245</div>", "iconImage": "u-red"}, "geometry": {"type": "Point", "coordinates": [17.39245, 68.43998]}}, {"type": "Feature", "properties": {"name": "WRS", "description": "<div style=\"width:100%;\">WRS: <b>Building</b>\n<br><span style=\"font-family: monospace\">building lowered into ground</span>\n<br><a href=\"thumbs/narvik-bunkers_WRS.jpg\" target=\"_blank\"><img width=\"100%\" src=\"thumbs/narvik-bunkers_WRS.jpg\"/></a>\n<br>68.39721,17.345</div>", "iconImage": "u-red"}, "geometry": {"type": "Point", "coordinates": [17.345, 68.39721]}}, {"type": "Feature", "properties": {"name": "PJT", "description": "<div style=\"width:100%;\">PJT: <b>Battle Station</b>\n<br><span style=\"font-family: monospace\">battle station</span>\n<br><a href=\"thumbs/narvik-bunkers_PJT.jpg\" target=\"_blank\"><img width=\"100%\" src=\"thumbs/narvik-bunkers_PJT.jpg\"/></a>\n<br>68.50443,16.93513</div>", "iconImage": "circle-red"}, "geometry": {"type": "Point", "coordinates": [16.93513, 68.50443]}}, {"type": "Feature", "properties": {"name": "KDP", "description": "<div style=\"width:100%;\">KDP: <b>Foundation</b>\n<br><span style=\"font-family: monospace\">rock leveled</span>\n<br><a href=\"thumbs/narvik-bunkers_KDP.jpg\" target=\"_blank\"><img width=\"100%\" src=\"thumbs/narvik-bunkers_KDP.jpg\"/></a>\n<br>68.372,17.42532</div>", "iconImage": "u-red"}, "geometry": {"type": "Point", "coordinates": [17.42532, 68.372]}}, {"type": "Feature", "properties": {"name": "HBZ", "description": "<div style=\"width:100%;\">HBZ: <b>Bunker</b>\n<br><span style=\"font-family: monospace\">additional bunker entrance; obstructed</span>\n<br><a href=\"thumbs/narvik-bunkers_HBZ.jpg\" target=\"_blank\"><img width=\"100%\" src=\"thumbs/narvik-bunkers_HBZ.jpg\"/></a>\n<br>68.41834,17.30461</div>", "iconImage": "circle-red"}, "geometry": {"type": "Point", "coordinates": [17.30461, 68.41834]}}, {"type": "Feature", "properties": {"name": "VZH", "description": "<div style=\"width:100%;\">VZH: <b>Building</b>\n<br><span style=\"font-family: monospace\">low foundations of building</span>\n<br><a href=\"thumbs/narvik-bunkers_VZH.jpg\" target=\"_blank\"><img width=\"100%\" src=\"thumbs/narvik-bunkers_VZH.jpg\"/></a>\n<br>68.43439,17.39079</div>", "iconImage": "circle-red"}, "geometry": {"type": "Point", "coordinates": [17.39079, 68.43439]}}, {"type": "Feature", "properties": {"name": "CSG", "description": "<div style=\"width:100%;\">CSG: <b>Building</b>\n<br><span style=\"font-family: monospace\">building walls; unknown origin</span>\n<br><a href=\"thumbs/narvik-bunkers_CSG.jpg\" target=\"_blank\"><img width=\"100%\" src=\"thumbs/narvik-bunkers_CSG.jpg\"/></a>\n<br>68.39866,17.96726</div>", "iconImage": "circle-red"}, "geometry": {"type": "Point", "coordinates": [17.96726, 68.39866]}}, {"type": "Feature", "properties": {"name": "HPL", "description": "<div style=\"width:100%;\">HPL: <b>Pit</b>\n<br><span style=\"font-family: monospace\">blasted rock; obstructed</span>\n<br><a href=\"thumbs/narvik-bunkers_HPL.jpg\" target=\"_blank\"><img width=\"100%\" src=\"thumbs/narvik-bunkers_HPL.jpg\"/></a>\n<br>68.43807,17.39504</div>", "iconImage": "circle-red"}, "geometry": {"type": "Point", "coordinates": [17.39504, 68.43807]}}, {"type": "Feature", "properties": {"name": "TJT", "description": "<div style=\"width:100%;\">TJT: <b>Building</b>\n<br><span style=\"font-family: monospace\">low foundations of building; building lowered into ground</span>\n<br><a href=\"thumbs/narvik-bunkers_TJT.jpg\" target=\"_blank\"><img width=\"100%\" src=\"thumbs/narvik-bunkers_TJT.jpg\"/></a>\n<br>68.52567,17.00524</div>", "iconImage": "circle-red"}, "geometry": {"type": "Point", "coordinates": [17.00524, 68.52567]}}, {"type": "Feature", "properties": {"name": "QVG", "description": "<div style=\"width:100%;\">QVG: <b>Tunnel</b>\n<br><span style=\"font-family: monospace\">tunnel with door; narrow tunnel entrance; Bogen Verft A/S door</span>\n<br><a href=\"thumbs/narvik-bunkers_QVG.jpg\" target=\"_blank\"><img width=\"100%\" src=\"thumbs/narvik-bunkers_QVG.jpg\"/></a>\n<br>68.43531,17.39739</div>", "iconImage": "rect-red"}, "geometry": {"type": "Point", "coordinates": [17.39739, 68.43531]}}, {"type": "Feature", "properties": {"name": "TZQ", "description": "<div style=\"width:100%;\">TZQ: <b>Trench</b>\n<br><span style=\"font-family: monospace\">lookout; battle station; trench</span>\n<br><a href=\"thumbs/narvik-bunkers_TZQ.jpg\" target=\"_blank\"><img width=\"100%\" src=\"thumbs/narvik-bunkers_TZQ.jpg\"/></a>\n<br>68.4193,17.3126</div>", "iconImage": "circle-red"}, "geometry": {"type": "Point", "coordinates": [17.3126, 68.4193]}}, {"type": "Feature", "properties": {"name": "XTD", "description": "<div style=\"width:100%;\">XTD: <b>Pit</b>\n<br><span style=\"font-family: monospace\">pit</span>\n<br><a href=\"thumbs/narvik-bunkers_XTD.jpg\" target=\"_blank\"><img width=\"100%\" src=\"thumbs/narvik-bunkers_XTD.jpg\"/></a>\n<br>68.4124,17.40192</div>", "iconImage": "u-red"}, "geometry": {"type": "Point", "coordinates": [17.40192, 68.4124]}}, {"type": "Feature", "properties": {"name": "YJJ", "description": "<div style=\"width:100%;\">YJJ: <b>Unidentified</b>\n<br><span style=\"font-family: monospace\">unidentified; unknown origin</span>\n<br><a href=\"thumbs/narvik-bunkers_YJJ.jpg\" target=\"_blank\"><img width=\"100%\" src=\"thumbs/narvik-bunkers_YJJ.jpg\"/></a>\n<br>68.45048,17.52756</div>", "iconImage": "circle-red"}, "geometry": {"type": "Point", "coordinates": [17.52756, 68.45048]}}, {"type": "Feature", "properties": {"name": "ZLG", "description": "<div style=\"width:100%;\">ZLG: <b>Other</b>\n<br>Ventilation shaft\n<br><span style=\"font-family: monospace\">other</span>\n<br><a href=\"thumbs/narvik-bunkers_ZLG.jpg\" target=\"_blank\"><img width=\"100%\" src=\"thumbs/narvik-bunkers_ZLG.jpg\"/></a>\n<br>68.44164,17.41358</div>", "iconImage": "circle-red"}, "geometry": {"type": "Point", "coordinates": [17.41358, 68.44164]}}, {"type": "Feature", "properties": {"name": "KXJ", "description": "<div style=\"width:100%;\">KXJ: <b>Bunker</b>\n<br><span style=\"font-family: monospace\">ammunition bunker/shelter; walled battle station</span>\n<br><a href=\"thumbs/narvik-bunkers_KXJ.jpg\" target=\"_blank\"><img width=\"100%\" src=\"thumbs/narvik-bunkers_KXJ.jpg\"/></a>\n<br>68.43306,17.38971</div>", "iconImage": "circle-red"}, "geometry": {"type": "Point", "coordinates": [17.38971, 68.43306]}}, {"type": "Feature", "properties": {"name": "ZSM", "description": "<div style=\"width:100%;\">ZSM: <b>Battle Station</b>\n<br><span style=\"font-family: monospace\">low-walled battle station; attached tunnel</span>\n<br><a href=\"thumbs/narvik-bunkers_ZSM.jpg\" target=\"_blank\"><img width=\"100%\" src=\"thumbs/narvik-bunkers_ZSM.jpg\"/></a>\n<br>68.44743,17.40796</div>", "iconImage": "circle-red"}, "geometry": {"type": "Point", "coordinates": [17.40796, 68.44743]}}, {"type": "Feature", "properties": {"name": "TWM", "description": "<div style=\"width:100%;\">TWM: <b>Foundation</b>\n<br><span style=\"font-family: monospace\">rock leveled</span>\n<br><a href=\"thumbs/narvik-bunkers_TWM.jpg\" target=\"_blank\"><img width=\"100%\" src=\"thumbs/narvik-bunkers_TWM.jpg\"/></a>\n<br>68.43726,17.39256</div>", "iconImage": "u-red"}, "geometry": {"type": "Point", "coordinates": [17.39256, 68.43726]}}, {"type": "Feature", "properties": {"name": "NSR", "description": "<div style=\"width:100%;\">NSR: <b>Tunnel</b>\n<br><span style=\"font-family: monospace\">open tunnel, no masonry; obstructed</span>\n<br><a href=\"thumbs/narvik-bunkers_NSR.jpg\" target=\"_blank\"><img width=\"100%\" src=\"thumbs/narvik-bunkers_NSR.jpg\"/></a>\n<br>68.42126,16.63908</div>", "iconImage": "rect-red"}, "geometry": {"type": "Point", "coordinates": [16.63908, 68.42126]}}, {"type": "Feature", "properties": {"name": "VQR", "description": "<div style=\"width:100%;\">VQR: <b>Unidentified</b>\n<br><span style=\"font-family: monospace\">unidentified</span>\n<br><a href=\"thumbs/narvik-bunkers_VQR.jpg\" target=\"_blank\"><img width=\"100%\" src=\"thumbs/narvik-bunkers_VQR.jpg\"/></a>\n<br>68.43971,17.39222</div>", "iconImage": "circle-red"}, "geometry": {"type": "Point", "coordinates": [17.39222, 68.43971]}}, {"type": "Feature", "properties": {"name": "GYT", "description": "<div style=\"width:100%;\">GYT: <b>Platform</b>\n<br><span style=\"font-family: monospace\">small concrete platform/pedestal; unknown origin</span>\n<br><a href=\"thumbs/narvik-bunkers_GYT.jpg\" target=\"_blank\"><img width=\"100%\" src=\"thumbs/narvik-bunkers_GYT.jpg\"/></a>\n<br>68.45055,17.52735</div>", "iconImage": "circle-red"}, "geometry": {"type": "Point", "coordinates": [17.52735, 68.45055]}}, {"type": "Feature", "properties": {"name": "JTP", "description": "<div style=\"width:100%;\">JTP: <b>Bunker</b>\n<br><span style=\"font-family: monospace\">bunker; embrasure; obstructed</span>\n<br><a href=\"thumbs/narvik-bunkers_JTP.jpg\" target=\"_blank\"><img width=\"100%\" src=\"thumbs/narvik-bunkers_JTP.jpg\"/></a>\n<br>68.4436,17.3985</div>", "iconImage": "circle-red"}, "geometry": {"type": "Point", "coordinates": [17.3985, 68.4436]}}, {"type": "Feature", "properties": {"name": "GLZ", "description": "<div style=\"width:100%;\">GLZ: <b>Tunnel</b>\n<br><span style=\"font-family: monospace\">open tunnel, no masonry; unknown origin</span>\n<br><a href=\"thumbs/narvik-bunkers_GLZ.jpg\" target=\"_blank\"><img width=\"100%\" src=\"thumbs/narvik-bunkers_GLZ.jpg\"/></a>\n<br>68.44747,17.40774</div>", "iconImage": "rect-red"}, "geometry": {"type": "Point", "coordinates": [17.40774, 68.44747]}}, {"type": "Feature", "properties": {"name": "XZN", "description": "<div style=\"width:100%;\">XZN: <b>Foundation</b>\n<br><span style=\"font-family: monospace\">rock leveled</span>\n<br><a href=\"thumbs/narvik-bunkers_XZN.jpg\" target=\"_blank\"><img width=\"100%\" src=\"thumbs/narvik-bunkers_XZN.jpg\"/></a>\n<br>68.42228,17.344</div>", "iconImage": "u-red"}, "geometry": {"type": "Point", "coordinates": [17.344, 68.42228]}}, {"type": "Feature", "properties": {"name": "SVM", "description": "<div style=\"width:100%;\">SVM: <b>Battle Station</b>\n<br><span style=\"font-family: monospace\">low-walled battle station; metal debris</span>\n<br><a href=\"thumbs/narvik-bunkers_SVM.jpg\" target=\"_blank\"><img width=\"100%\" src=\"thumbs/narvik-bunkers_SVM.jpg\"/></a>\n<br>68.4048,17.41582</div>", "iconImage": "circle-red"}, "geometry": {"type": "Point", "coordinates": [17.41582, 68.4048]}}, {"type": "Feature", "properties": {"name": "KNT", "description": "<div style=\"width:100%;\">KNT: <b>Building</b>\n<br><span style=\"font-family: monospace\">building lowered into ground</span>\n<br><a href=\"thumbs/narvik-bunkers_KNT.jpg\" target=\"_blank\"><img width=\"100%\" src=\"thumbs/narvik-bunkers_KNT.jpg\"/></a>\n<br>68.50542,17.08642</div>", "iconImage": "u-red"}, "geometry": {"type": "Point", "coordinates": [17.08642, 68.50542]}}, {"type": "Feature", "properties": {"name": "CHS", "description": "<div style=\"width:100%;\">CHS: <b>Battle Station</b>\n<br><span style=\"font-family: monospace\">battle station; attached tunnel</span>\n<br><a href=\"thumbs/narvik-bunkers_CHS.jpg\" target=\"_blank\"><img width=\"100%\" src=\"thumbs/narvik-bunkers_CHS.jpg\"/></a>\n<br>68.40003,17.29982</div>", "iconImage": "circle-red"}, "geometry": {"type": "Point", "coordinates": [17.29982, 68.40003]}}, {"type": "Feature", "properties": {"name": "DVB", "description": "<div style=\"width:100%;\">DVB: <b>Building</b>\n<br><span style=\"font-family: monospace\">building lowered into ground</span>\n<br><a href=\"thumbs/narvik-bunkers_DVB.jpg\" target=\"_blank\"><img width=\"100%\" src=\"thumbs/narvik-bunkers_DVB.jpg\"/></a>\n<br>68.47031,17.48288</div>", "iconImage": "u-red"}, "geometry": {"type": "Point", "coordinates": [17.48288, 68.47031]}}, {"type": "Feature", "properties": {"name": "VYV", "description": "<div style=\"width:100%;\">VYV: <b>Battle Station</b>\n<br><span style=\"font-family: monospace\">low-walled battle station</span>\n<br><a href=\"thumbs/narvik-bunkers_VYV.jpg\" target=\"_blank\"><img width=\"100%\" src=\"thumbs/narvik-bunkers_VYV.jpg\"/></a>\n<br>68.42958,17.42539</div>", "iconImage": "circle-red"}, "geometry": {"type": "Point", "coordinates": [17.42539, 68.42958]}}, {"type": "Feature", "properties": {"name": "XNH", "description": "<div style=\"width:100%;\">XNH: <b>Other</b>\n<br><span style=\"font-family: monospace\">other</span>\n<br><a href=\"thumbs/narvik-bunkers_XNH.jpg\" target=\"_blank\"><img width=\"100%\" src=\"thumbs/narvik-bunkers_XNH.jpg\"/></a>\n<br>68.53899,17.57618</div>", "iconImage": "circle-red"}, "geometry": {"type": "Point", "coordinates": [17.57618, 68.53899]}}, {"type": "Feature", "properties": {"name": "NKN", "description": "<div style=\"width:100%;\">NKN: <b>Tunnel</b>\n<br><span style=\"font-family: monospace\">open tunnel, no masonry; narrow tunnel entrance; trench</span>\n<br><a href=\"thumbs/narvik-bunkers_NKN.jpg\" target=\"_blank\"><img width=\"100%\" src=\"thumbs/narvik-bunkers_NKN.jpg\"/></a>\n<br>68.41938,17.31217</div>", "iconImage": "rect-red"}, "geometry": {"type": "Point", "coordinates": [17.31217, 68.41938]}}, {"type": "Feature", "properties": {"name": "GBW", "description": "<div style=\"width:100%;\">GBW: <b>Bunker</b>\n<br><span style=\"font-family: monospace\">bunker with blast protection</span>\n<br><a href=\"thumbs/narvik-bunkers_GBW.jpg\" target=\"_blank\"><img width=\"100%\" src=\"thumbs/narvik-bunkers_GBW.jpg\"/></a>\n<br>68.41533,16.56592</div>", "iconImage": "circle-red"}, "geometry": {"type": "Point", "coordinates": [16.56592, 68.41533]}}, {"type": "Feature", "properties": {"name": "WJP", "description": "<div style=\"width:100%;\">WJP: <b>Bunker</b>\n<br><span style=\"font-family: monospace\">bunker; overbuilt</span>\n<br><a href=\"thumbs/narvik-bunkers_WJP.jpg\" target=\"_blank\"><img width=\"100%\" src=\"thumbs/narvik-bunkers_WJP.jpg\"/></a>\n<br>68.43224,17.43757</div>", "iconImage": "circle-red"}, "geometry": {"type": "Point", "coordinates": [17.43757, 68.43224]}}, {"type": "Feature", "properties": {"name": "ZWQ", "description": "<div style=\"width:100%;\">ZWQ: <b>Platform</b>\n<br><span style=\"font-family: monospace\">small concrete platform/pedestal</span>\n<br><a href=\"thumbs/narvik-bunkers_ZWQ.jpg\" target=\"_blank\"><img width=\"100%\" src=\"thumbs/narvik-bunkers_ZWQ.jpg\"/></a>\n<br>68.45208,17.47553</div>", "iconImage": "circle-red"}, "geometry": {"type": "Point", "coordinates": [17.47553, 68.45208]}}, {"type": "Feature", "properties": {"name": "HSB", "description": "<div style=\"width:100%;\">HSB: <b>Building</b>\n<br><span style=\"font-family: monospace\">low foundations of building</span>\n<br><a href=\"thumbs/narvik-bunkers_HSB.jpg\" target=\"_blank\"><img width=\"100%\" src=\"thumbs/narvik-bunkers_HSB.jpg\"/></a>\n<br>68.43967,17.39261</div>", "iconImage": "circle-red"}, "geometry": {"type": "Point", "coordinates": [17.39261, 68.43967]}}, {"type": "Feature", "properties": {"name": "DTR", "description": "<div style=\"width:100%;\">DTR: <b>Building</b>\n<br><span style=\"font-family: monospace\">building lowered into ground</span>\n<br><a href=\"thumbs/narvik-bunkers_DTR.jpg\" target=\"_blank\"><img width=\"100%\" src=\"thumbs/narvik-bunkers_DTR.jpg\"/></a>\n<br>68.51213,17.0968</div>", "iconImage": "u-red"}, "geometry": {"type": "Point", "coordinates": [17.0968, 68.51213]}}, {"type": "Feature", "properties": {"name": "CCP", "description": "<div style=\"width:100%;\">CCP: <b>Foundation</b>\n<br><span style=\"font-family: monospace\">rock leveled</span>\n<br><a href=\"thumbs/narvik-bunkers_CCP.jpg\" target=\"_blank\"><img width=\"100%\" src=\"thumbs/narvik-bunkers_CCP.jpg\"/></a>\n<br>68.41027,17.43208</div>", "iconImage": "u-red"}, "geometry": {"type": "Point", "coordinates": [17.43208, 68.41027]}}, {"type": "Feature", "properties": {"name": "SQW", "description": "<div style=\"width:100%;\">SQW: <b>Tunnel</b>\n<br><span style=\"font-family: monospace\">open tunnel, masonry; narrow tunnel entrance</span>\n<br><a href=\"thumbs/narvik-bunkers_SQW.jpg\" target=\"_blank\"><img width=\"100%\" src=\"thumbs/narvik-bunkers_SQW.jpg\"/></a>\n<br>68.41977,17.30587</div>", "iconImage": "rect-red"}, "geometry": {"type": "Point", "coordinates": [17.30587, 68.41977]}}, {"type": "Feature", "properties": {"name": "HRR", "description": "<div style=\"width:100%;\">HRR: <b>Battle Station</b>\n<br><span style=\"font-family: monospace\">battle station</span>\n<br><a href=\"thumbs/narvik-bunkers_HRR.jpg\" target=\"_blank\"><img width=\"100%\" src=\"thumbs/narvik-bunkers_HRR.jpg\"/></a>\n<br>68.50489,16.93561</div>", "iconImage": "circle-red"}, "geometry": {"type": "Point", "coordinates": [16.93561, 68.50489]}}, {"type": "Feature", "properties": {"name": "JSQ", "description": "<div style=\"width:100%;\">JSQ: <b>Unspecified</b>\n<br><a href=\"extern/PVKNJPae9THSFjqaawgplNviUMg69i2m60E56Agm7TeMG_D9pnrhRtJtZsv7Qa9R5AdPSC-i0geINwm6POnbdymURsA.jpg\" target=\"_blank\"><img width=\"100%\" src=\"extern/PVKNJPae9THSFjqaawgplNviUMg69i2m60E56Agm7TeMG_D9pnrhRtJtZsv7Qa9R5AdPSC-i0geINwm6POnbdymURsA.jpg\"/></a>\n<br>68.192128,17.329956</div>", "iconImage": "circle-orange"}, "geometry": {"type": "Point", "coordinates": [17.329956, 68.192128]}}, {"type": "Feature", "properties": {"name": "SKC", "description": "<div style=\"width:100%;\">SKC: <b>Battle Station</b>\n<br><span style=\"font-family: monospace\">high-walled battle station; ammunition bunker/shelter</span>\n<br><a href=\"thumbs/narvik-bunkers_SKC.jpg\" target=\"_blank\"><img width=\"100%\" src=\"thumbs/narvik-bunkers_SKC.jpg\"/></a>\n<br>68.50327,16.93221</div>", "iconImage": "circle-red"}, "geometry": {"type": "Point", "coordinates": [16.93221, 68.50327]}}, {"type": "Feature", "properties": {"name": "DYR", "description": "<div style=\"width:100%;\">DYR: <b>Pit</b>\n<br><span style=\"font-family: monospace\">pit; trench; unknown origin</span>\n<br><a href=\"thumbs/narvik-bunkers_DYR.jpg\" target=\"_blank\"><img width=\"100%\" src=\"thumbs/narvik-bunkers_DYR.jpg\"/></a>\n<br>68.42898,17.43769</div>", "iconImage": "u-red"}, "geometry": {"type": "Point", "coordinates": [17.43769, 68.42898]}}, {"type": "Feature", "properties": {"name": "NBS", "description": "<div style=\"width:100%;\">NBS: <b>Tunnel</b>\n<br>(4 similar-looking independent entrances)\n<br><span style=\"font-family: monospace\">single-person shelter tunnel; unknown origin</span>\n<br><a href=\"thumbs/narvik-bunkers_NBS.jpg\" target=\"_blank\"><img width=\"100%\" src=\"thumbs/narvik-bunkers_NBS.jpg\"/></a>\n<br>68.3881,17.25279</div>", "iconImage": "rect-red"}, "geometry": {"type": "Point", "coordinates": [17.25279, 68.3881]}}, {"type": "Feature", "properties": {"name": "MWH", "description": "<div style=\"width:100%;\">MWH: <b>Battle Station</b>\n<br><span style=\"font-family: monospace\">battle station; probably Norwegian pre-war construction</span>\n<br><a href=\"thumbs/narvik-bunkers_MWH.jpg\" target=\"_blank\"><img width=\"100%\" src=\"thumbs/narvik-bunkers_MWH.jpg\"/></a>\n<br>68.39357,17.82438</div>", "iconImage": "circle-red"}, "geometry": {"type": "Point", "coordinates": [17.82438, 68.39357]}}, {"type": "Feature", "properties": {"name": "HTL", "description": "<div style=\"width:100%;\">HTL: <b>Other</b>\n<br>Hose with ropes\n<br><span style=\"font-family: monospace\">other; unknown origin</span>\n<br><a href=\"thumbs/narvik-bunkers_HTL.jpg\" target=\"_blank\"><img width=\"100%\" src=\"thumbs/narvik-bunkers_HTL.jpg\"/></a>\n<br>68.45062,17.45722</div>", "iconImage": "circle-red"}, "geometry": {"type": "Point", "coordinates": [17.45722, 68.45062]}}, {"type": "Feature", "properties": {"name": "MSZ", "description": "<div style=\"width:100%;\">MSZ: <b>Bunker</b>\n<br><span style=\"font-family: monospace\">bunker; overbuilt</span>\n<br><a href=\"thumbs/narvik-bunkers_MSZ.jpg\" target=\"_blank\"><img width=\"100%\" src=\"thumbs/narvik-bunkers_MSZ.jpg\"/></a>\n<br>68.44322,17.44396</div>", "iconImage": "circle-red"}, "geometry": {"type": "Point", "coordinates": [17.44396, 68.44322]}}, {"type": "Feature", "properties": {"name": "YPH", "description": "<div style=\"width:100%;\">YPH: <b>Battle Station</b>\n<br><span style=\"font-family: monospace\">battle station</span>\n<br><a href=\"thumbs/narvik-bunkers_YPH.jpg\" target=\"_blank\"><img width=\"100%\" src=\"thumbs/narvik-bunkers_YPH.jpg\"/></a>\n<br>68.50499,16.93603</div>", "iconImage": "circle-red"}, "geometry": {"type": "Point", "coordinates": [16.93603, 68.50499]}}, {"type": "Feature", "properties": {"name": "PQP", "description": "<div style=\"width:100%;\">PQP: <b>Trench</b>\n<br><span style=\"font-family: monospace\">deep and wide trench; unfinished; probably Norwegian post-war construction</span>\n<br><a href=\"thumbs/narvik-bunkers_PQP.jpg\" target=\"_blank\"><img width=\"100%\" src=\"thumbs/narvik-bunkers_PQP.jpg\"/></a>\n<br>68.41385,16.56016</div>", "iconImage": "circle-red"}, "geometry": {"type": "Point", "coordinates": [16.56016, 68.41385]}}, {"type": "Feature", "properties": {"name": "JGK", "description": "<div style=\"width:100%;\">JGK: <b>Building</b>\n<br><span style=\"font-family: monospace\">building lowered into ground; trench</span>\n<br><a href=\"thumbs/narvik-bunkers_JGK.jpg\" target=\"_blank\"><img width=\"100%\" src=\"thumbs/narvik-bunkers_JGK.jpg\"/></a>\n<br>68.44349,17.43557</div>", "iconImage": "u-red"}, "geometry": {"type": "Point", "coordinates": [17.43557, 68.44349]}}, {"type": "Feature", "properties": {"name": "XBH", "description": "<div style=\"width:100%;\">XBH: <b>Battle Station</b>\n<br><span style=\"font-family: monospace\">battle station at end of a trench; trench</span>\n<br><a href=\"thumbs/narvik-bunkers_XBH.jpg\" target=\"_blank\"><img width=\"100%\" src=\"thumbs/narvik-bunkers_XBH.jpg\"/></a>\n<br>68.44156,17.38888</div>", "iconImage": "circle-red"}, "geometry": {"type": "Point", "coordinates": [17.38888, 68.44156]}}, {"type": "Feature", "properties": {"name": "CLK", "description": "<div style=\"width:100%;\">CLK: <b>Foundation</b>\n<br><span style=\"font-family: monospace\">flat foundation</span>\n<br><a href=\"thumbs/narvik-bunkers_CLK.jpg\" target=\"_blank\"><img width=\"100%\" src=\"thumbs/narvik-bunkers_CLK.jpg\"/></a>\n<br>68.4345,17.3911</div>", "iconImage": "circle-red"}, "geometry": {"type": "Point", "coordinates": [17.3911, 68.4345]}}, {"type": "Feature", "properties": {"name": "HXP", "description": "<div style=\"width:100%;\">HXP: <b>Building</b>\n<br><span style=\"font-family: monospace\">building walls; building with windows</span>\n<br><a href=\"thumbs/narvik-bunkers_HXP.jpg\" target=\"_blank\"><img width=\"100%\" src=\"thumbs/narvik-bunkers_HXP.jpg\"/></a>\n<br>68.38097,17.04904</div>", "iconImage": "circle-red"}, "geometry": {"type": "Point", "coordinates": [17.04904, 68.38097]}}, {"type": "Feature", "properties": {"name": "NJQ", "description": "<div style=\"width:100%;\">NJQ: <b>Bunker</b>\n<br><span style=\"font-family: monospace\">bunker with blast protection; block construction</span>\n<br><a href=\"thumbs/narvik-bunkers_NJQ.jpg\" target=\"_blank\"><img width=\"100%\" src=\"thumbs/narvik-bunkers_NJQ.jpg\"/></a>\n<br>68.4206,16.63849</div>", "iconImage": "circle-red"}, "geometry": {"type": "Point", "coordinates": [16.63849, 68.4206]}}, {"type": "Feature", "properties": {"name": "CPN", "description": "<div style=\"width:100%;\">CPN: <b>Bunker</b>\n<br><span style=\"font-family: monospace\">ammunition bunker/shelter; damaged</span>\n<br><a href=\"thumbs/narvik-bunkers_CPN.jpg\" target=\"_blank\"><img width=\"100%\" src=\"thumbs/narvik-bunkers_CPN.jpg\"/></a>\n<br>68.42149,16.59899</div>", "iconImage": "circle-red"}, "geometry": {"type": "Point", "coordinates": [16.59899, 68.42149]}}, {"type": "Feature", "properties": {"name": "KRL", "description": "<div style=\"width:100%;\">KRL: <b>Battle Station</b>\n<br><span style=\"font-family: monospace\">high-walled battle station; ammunition bunker/shelter</span>\n<br><a href=\"thumbs/narvik-bunkers_KRL.jpg\" target=\"_blank\"><img width=\"100%\" src=\"thumbs/narvik-bunkers_KRL.jpg\"/></a>\n<br>68.42083,16.63824</div>", "iconImage": "circle-red"}, "geometry": {"type": "Point", "coordinates": [16.63824, 68.42083]}}, {"type": "Feature", "properties": {"name": "MTX", "description": "<div style=\"width:100%;\">MTX: <b>Battle Station</b>\n<br><span style=\"font-family: monospace\">search light foundation</span>\n<br><a href=\"thumbs/narvik-bunkers_MTX.jpg\" target=\"_blank\"><img width=\"100%\" src=\"thumbs/narvik-bunkers_MTX.jpg\"/></a>\n<br>68.50495,17.07631</div>", "iconImage": "circle-red"}, "geometry": {"type": "Point", "coordinates": [17.07631, 68.50495]}}, {"type": "Feature", "properties": {"name": "QXM", "description": "<div style=\"width:100%;\">QXM: <b>Building</b>\n<br><span style=\"font-family: monospace\">low foundations of building; unknown origin</span>\n<br><a href=\"thumbs/narvik-bunkers_QXM.jpg\" target=\"_blank\"><img width=\"100%\" src=\"thumbs/narvik-bunkers_QXM.jpg\"/></a>\n<br>68.43829,17.64682</div>", "iconImage": "circle-red"}, "geometry": {"type": "Point", "coordinates": [17.64682, 68.43829]}}, {"type": "Feature", "properties": {"name": "QMB", "description": "<div style=\"width:100%;\">QMB: <b>Platform</b>\n<br><span style=\"font-family: monospace\">small concrete platform/pedestal</span>\n<br><a href=\"thumbs/narvik-bunkers_QMB.jpg\" target=\"_blank\"><img width=\"100%\" src=\"thumbs/narvik-bunkers_QMB.jpg\"/></a>\n<br>68.20791,17.36563</div>", "iconImage": "circle-red"}, "geometry": {"type": "Point", "coordinates": [17.36563, 68.20791]}}, {"type": "Feature", "properties": {"name": "HSP", "description": "<div style=\"width:100%;\">HSP: <b>Pit</b>\n<br><span style=\"font-family: monospace\">pit; unknown origin</span>\n<br><a href=\"thumbs/narvik-bunkers_HSP.jpg\" target=\"_blank\"><img width=\"100%\" src=\"thumbs/narvik-bunkers_HSP.jpg\"/></a>\n<br>68.39979,17.96603</div>", "iconImage": "u-red"}, "geometry": {"type": "Point", "coordinates": [17.96603, 68.39979]}}, {"type": "Feature", "properties": {"name": "LGZ", "description": "<div style=\"width:100%;\">LGZ: <b>Battle Station</b>\n<br><span style=\"font-family: monospace\">high-walled battle station; ammunition bunker/shelter</span>\n<br><a href=\"thumbs/narvik-bunkers_LGZ.jpg\" target=\"_blank\"><img width=\"100%\" src=\"thumbs/narvik-bunkers_LGZ.jpg\"/></a>\n<br>68.51437,17.00333</div>", "iconImage": "circle-red"}, "geometry": {"type": "Point", "coordinates": [17.00333, 68.51437]}}, {"type": "Feature", "properties": {"name": "HLS", "description": "<div style=\"width:100%;\">HLS: <b>Battle Station</b>\n<br><span style=\"font-family: monospace\">low-walled battle station</span>\n<br><a href=\"thumbs/narvik-bunkers_HLS.jpg\" target=\"_blank\"><img width=\"100%\" src=\"thumbs/narvik-bunkers_HLS.jpg\"/></a>\n<br>68.42693,17.44452</div>", "iconImage": "circle-red"}, "geometry": {"type": "Point", "coordinates": [17.44452, 68.42693]}}, {"type": "Feature", "properties": {"name": "BVT", "description": "<div style=\"width:100%;\">BVT: <b>Bunker</b>\n<br><span style=\"font-family: monospace\">bunker with blast protection</span>\n<br><a href=\"thumbs/narvik-bunkers_BVT.jpg\" target=\"_blank\"><img width=\"100%\" src=\"thumbs/narvik-bunkers_BVT.jpg\"/></a>\n<br>68.50351,16.93222</div>", "iconImage": "circle-red"}, "geometry": {"type": "Point", "coordinates": [16.93222, 68.50351]}}, {"type": "Feature", "properties": {"name": "YSV", "description": "<div style=\"width:100%;\">YSV: <b>Trench</b>\n<br><span style=\"font-family: monospace\">trench</span>\n<br><a href=\"thumbs/narvik-bunkers_YSV.jpg\" target=\"_blank\"><img width=\"100%\" src=\"thumbs/narvik-bunkers_YSV.jpg\"/></a>\n<br>68.45716,17.01932</div>", "iconImage": "circle-red"}, "geometry": {"type": "Point", "coordinates": [17.01932, 68.45716]}}, {"type": "Feature", "properties": {"name": "TMM", "description": "<div style=\"width:100%;\">TMM: <b>Battle Station</b>\n<br><span style=\"font-family: monospace\">battle station</span>\n<br><a href=\"thumbs/narvik-bunkers_TMM.jpg\" target=\"_blank\"><img width=\"100%\" src=\"thumbs/narvik-bunkers_TMM.jpg\"/></a>\n<br>68.50447,17.08049</div>", "iconImage": "circle-red"}, "geometry": {"type": "Point", "coordinates": [17.08049, 68.50447]}}, {"type": "Feature", "properties": {"name": "RDW", "description": "<div style=\"width:100%;\">RDW: <b>Building</b>\n<br><span style=\"font-family: monospace\">building lowered into ground</span>\n<br><a href=\"thumbs/narvik-bunkers_RDW.jpg\" target=\"_blank\"><img width=\"100%\" src=\"thumbs/narvik-bunkers_RDW.jpg\"/></a>\n<br>68.50504,17.08637</div>", "iconImage": "u-red"}, "geometry": {"type": "Point", "coordinates": [17.08637, 68.50504]}}, {"type": "Feature", "properties": {"name": "QJW", "description": "<div style=\"width:100%;\">QJW: <b>Battle Station</b>\n<br><span style=\"font-family: monospace\">window; multiple bunker rooms</span>\n<br><a href=\"thumbs/narvik-bunkers_QJW.jpg\" target=\"_blank\"><img width=\"100%\" src=\"thumbs/narvik-bunkers_QJW.jpg\"/></a>\n<br>68.38311,17.04392</div>", "iconImage": "circle-red"}, "geometry": {"type": "Point", "coordinates": [17.04392, 68.38311]}}, {"type": "Feature", "properties": {"name": "NDN", "description": "<div style=\"width:100%;\">NDN: <b>Building</b>\n<br><span style=\"font-family: monospace\">building walls; damaged</span>\n<br><a href=\"thumbs/narvik-bunkers_NDN.jpg\" target=\"_blank\"><img width=\"100%\" src=\"thumbs/narvik-bunkers_NDN.jpg\"/></a>\n<br>68.50405,17.07871</div>", "iconImage": "circle-red"}, "geometry": {"type": "Point", "coordinates": [17.07871, 68.50405]}}, {"type": "Feature", "properties": {"name": "HHQ", "description": "<div style=\"width:100%;\">HHQ: <b>Pit</b>\n<br><span style=\"font-family: monospace\">pit</span>\n<br><a href=\"thumbs/narvik-bunkers_HHQ.jpg\" target=\"_blank\"><img width=\"100%\" src=\"thumbs/narvik-bunkers_HHQ.jpg\"/></a>\n<br>68.50485,17.0804</div>", "iconImage": "u-red"}, "geometry": {"type": "Point", "coordinates": [17.0804, 68.50485]}}, {"type": "Feature", "properties": {"name": "RPM", "description": "<div style=\"width:100%;\">RPM: <b>Pit</b>\n<br><span style=\"font-family: monospace\">pit</span>\n<br><a href=\"thumbs/narvik-bunkers_RPM.jpg\" target=\"_blank\"><img width=\"100%\" src=\"thumbs/narvik-bunkers_RPM.jpg\"/></a>\n<br>68.50882,17.10021</div>", "iconImage": "u-red"}, "geometry": {"type": "Point", "coordinates": [17.10021, 68.50882]}}, {"type": "Feature", "properties": {"name": "PJJ", "description": "<div style=\"width:100%;\">PJJ: <b>Battle Station</b>\n<br><span style=\"font-family: monospace\">battle station</span>\n<br><a href=\"thumbs/narvik-bunkers_PJJ.jpg\" target=\"_blank\"><img width=\"100%\" src=\"thumbs/narvik-bunkers_PJJ.jpg\"/></a>\n<br>68.55336,17.57865</div>", "iconImage": "circle-red"}, "geometry": {"type": "Point", "coordinates": [17.57865, 68.55336]}}, {"type": "Feature", "properties": {"name": "BJX", "description": "<div style=\"width:100%;\">BJX: <b>Pit</b>\n<br><span style=\"font-family: monospace\">pit; unknown origin</span>\n<br><a href=\"thumbs/narvik-bunkers_BJX.jpg\" target=\"_blank\"><img width=\"100%\" src=\"thumbs/narvik-bunkers_BJX.jpg\"/></a>\n<br>68.4286,17.43809</div>", "iconImage": "u-red"}, "geometry": {"type": "Point", "coordinates": [17.43809, 68.4286]}}, {"type": "Feature", "properties": {"name": "PSK", "description": "<div style=\"width:100%;\">PSK: <b>Building</b>\n<br><span style=\"font-family: monospace\">building walls</span>\n<br><a href=\"thumbs/narvik-bunkers_PSK.jpg\" target=\"_blank\"><img width=\"100%\" src=\"thumbs/narvik-bunkers_PSK.jpg\"/></a>\n<br>68.46581,17.03517</div>", "iconImage": "circle-red"}, "geometry": {"type": "Point", "coordinates": [17.03517, 68.46581]}}, {"type": "Feature", "properties": {"name": "LQG", "description": "<div style=\"width:100%;\">LQG: <b>Other</b>\n<br>Torpedo Launch\n<br><span style=\"font-family: monospace\">other</span>\n<br><a href=\"thumbs/narvik-bunkers_LQG.jpg\" target=\"_blank\"><img width=\"100%\" src=\"thumbs/narvik-bunkers_LQG.jpg\"/></a>\n<br>68.41564,16.56208</div>", "iconImage": "circle-red"}, "geometry": {"type": "Point", "coordinates": [16.56208, 68.41564]}}, {"type": "Feature", "properties": {"name": "HYL", "description": "<div style=\"width:100%;\">HYL: <b>Bunker</b>\n<br><span style=\"font-family: monospace\">bunker with straight entrance; block construction; \"other\" door type</span>\n<br><a href=\"thumbs/narvik-bunkers_HYL.jpg\" target=\"_blank\"><img width=\"100%\" src=\"thumbs/narvik-bunkers_HYL.jpg\"/></a>\n<br>68.37115,17.25027</div>", "iconImage": "circle-red"}, "geometry": {"type": "Point", "coordinates": [17.25027, 68.37115]}}, {"type": "Feature", "properties": {"name": "SSS", "description": "<div style=\"width:100%;\">SSS: <b>Bunker</b>\n<br><span style=\"font-family: monospace\">ammunition bunker/shelter; damaged</span>\n<br><a href=\"thumbs/narvik-bunkers_SSS.jpg\" target=\"_blank\"><img width=\"100%\" src=\"thumbs/narvik-bunkers_SSS.jpg\"/></a>\n<br>68.46257,17.02644</div>", "iconImage": "circle-red"}, "geometry": {"type": "Point", "coordinates": [17.02644, 68.46257]}}, {"type": "Feature", "properties": {"name": "LZR", "description": "<div style=\"width:100%;\">LZR: <b>Bunker</b>\n<br><span style=\"font-family: monospace\">bunker; damaged</span>\n<br><a href=\"thumbs/narvik-bunkers_LZR.jpg\" target=\"_blank\"><img width=\"100%\" src=\"thumbs/narvik-bunkers_LZR.jpg\"/></a>\n<br>68.44211,17.40894</div>", "iconImage": "circle-red"}, "geometry": {"type": "Point", "coordinates": [17.40894, 68.44211]}}, {"type": "Feature", "properties": {"name": "WKW", "description": "<div style=\"width:100%;\">WKW: <b>Trench</b>\n<br><span style=\"font-family: monospace\">lookout</span>\n<br><a href=\"thumbs/narvik-bunkers_WKW.jpg\" target=\"_blank\"><img width=\"100%\" src=\"thumbs/narvik-bunkers_WKW.jpg\"/></a>\n<br>68.44196,17.39615</div>", "iconImage": "circle-red"}, "geometry": {"type": "Point", "coordinates": [17.39615, 68.44196]}}, {"type": "Feature", "properties": {"name": "CWJ", "description": "<div style=\"width:100%;\">CWJ: <b>Battle Station</b>\n<br><span style=\"font-family: monospace\">high-walled battle station; ammunition bunker/shelter</span>\n<br><a href=\"thumbs/narvik-bunkers_CWJ.jpg\" target=\"_blank\"><img width=\"100%\" src=\"thumbs/narvik-bunkers_CWJ.jpg\"/></a>\n<br>68.45714,17.01894</div>", "iconImage": "circle-red"}, "geometry": {"type": "Point", "coordinates": [17.01894, 68.45714]}}, {"type": "Feature", "properties": {"name": "RCB", "description": "<div style=\"width:100%;\">RCB: <b>Pit</b>\n<br><span style=\"font-family: monospace\">pit</span>\n<br><a href=\"thumbs/narvik-bunkers_RCB.jpg\" target=\"_blank\"><img width=\"100%\" src=\"thumbs/narvik-bunkers_RCB.jpg\"/></a>\n<br>68.41224,17.40169</div>", "iconImage": "u-red"}, "geometry": {"type": "Point", "coordinates": [17.40169, 68.41224]}}, {"type": "Feature", "properties": {"name": "PTG", "description": "<div style=\"width:100%;\">PTG: <b>Battle Station</b>\n<br><span style=\"font-family: monospace\">battle station at end of a trench</span>\n<br><a href=\"thumbs/narvik-bunkers_PTG.jpg\" target=\"_blank\"><img width=\"100%\" src=\"thumbs/narvik-bunkers_PTG.jpg\"/></a>\n<br>68.41781,17.30778</div>", "iconImage": "circle-red"}, "geometry": {"type": "Point", "coordinates": [17.30778, 68.41781]}}, {"type": "Feature", "properties": {"name": "HKV", "description": "<div style=\"width:100%;\">HKV: <b>Tunnel</b>\n<br><span style=\"font-family: monospace\">open tunnel, masonry; narrow tunnel entrance; bunker with blast protection</span>\n<br><a href=\"thumbs/narvik-bunkers_HKV.jpg\" target=\"_blank\"><img width=\"100%\" src=\"thumbs/narvik-bunkers_HKV.jpg\"/></a>\n<br>68.46651,17.47335</div>", "iconImage": "rect-red"}, "geometry": {"type": "Point", "coordinates": [17.47335, 68.46651]}}, {"type": "Feature", "properties": {"name": "JZM", "description": "<div style=\"width:100%;\">JZM: <b>Foundation</b>\n<br><span style=\"font-family: monospace\">rock leveled</span>\n<br><a href=\"thumbs/narvik-bunkers_JZM.jpg\" target=\"_blank\"><img width=\"100%\" src=\"thumbs/narvik-bunkers_JZM.jpg\"/></a>\n<br>68.40962,17.43126</div>", "iconImage": "u-red"}, "geometry": {"type": "Point", "coordinates": [17.43126, 68.40962]}}, {"type": "Feature", "properties": {"name": "WHQ", "description": "<div style=\"width:100%;\">WHQ: <b>Bunker</b>\n<br><span style=\"font-family: monospace\">bunker with straight entrance</span>\n<br><a href=\"thumbs/narvik-bunkers_WHQ.jpg\" target=\"_blank\"><img width=\"100%\" src=\"thumbs/narvik-bunkers_WHQ.jpg\"/></a>\n<br>68.37508,17.25357</div>", "iconImage": "circle-red"}, "geometry": {"type": "Point", "coordinates": [17.25357, 68.37508]}}, {"type": "Feature", "properties": {"name": "QDH", "description": "<div style=\"width:100%;\">QDH: <b>Building</b>\n<br><span style=\"font-family: monospace\">low foundations of building; unknown origin</span>\n<br><a href=\"thumbs/narvik-bunkers_QDH.jpg\" target=\"_blank\"><img width=\"100%\" src=\"thumbs/narvik-bunkers_QDH.jpg\"/></a>\n<br>68.43831,17.64664</div>", "iconImage": "circle-red"}, "geometry": {"type": "Point", "coordinates": [17.64664, 68.43831]}}, {"type": "Feature", "properties": {"name": "PKQ", "description": "<div style=\"width:100%;\">PKQ: <b>Bunker</b>\n<br><span style=\"font-family: monospace\">bunker with blast protection</span>\n<br><a href=\"thumbs/narvik-bunkers_PKQ.jpg\" target=\"_blank\"><img width=\"100%\" src=\"thumbs/narvik-bunkers_PKQ.jpg\"/></a>\n<br>68.38277,17.04988</div>", "iconImage": "circle-red"}, "geometry": {"type": "Point", "coordinates": [17.04988, 68.38277]}}, {"type": "Feature", "properties": {"name": "CHG", "description": "<div style=\"width:100%;\">CHG: <b>Pit</b>\n<br><span style=\"font-family: monospace\">pit</span>\n<br><a href=\"thumbs/narvik-bunkers_CHG.jpg\" target=\"_blank\"><img width=\"100%\" src=\"thumbs/narvik-bunkers_CHG.jpg\"/></a>\n<br>68.4329,17.38925</div>", "iconImage": "u-red"}, "geometry": {"type": "Point", "coordinates": [17.38925, 68.4329]}}, {"type": "Feature", "properties": {"name": "JLV", "description": "<div style=\"width:100%;\">JLV: <b>Battle Station</b>\n<br><span style=\"font-family: monospace\">high-walled battle station; ammunition bunker/shelter</span>\n<br><a href=\"thumbs/narvik-bunkers_JLV.jpg\" target=\"_blank\"><img width=\"100%\" src=\"thumbs/narvik-bunkers_JLV.jpg\"/></a>\n<br>68.4707,17.48427</div>", "iconImage": "circle-red"}, "geometry": {"type": "Point", "coordinates": [17.48427, 68.4707]}}, {"type": "Feature", "properties": {"name": "MBC", "description": "<div style=\"width:100%;\">MBC: <b>Tunnel</b>\n<br><span style=\"font-family: monospace\">tunnel with door; narrow tunnel entrance; Bogen Verft A/S door</span>\n<br><a href=\"thumbs/narvik-bunkers_MBC.jpg\" target=\"_blank\"><img width=\"100%\" src=\"thumbs/narvik-bunkers_MBC.jpg\"/></a>\n<br>68.44115,17.43197</div>", "iconImage": "rect-red"}, "geometry": {"type": "Point", "coordinates": [17.43197, 68.44115]}}, {"type": "Feature", "properties": {"name": "QCK", "description": "<div style=\"width:100%;\">QCK: <b>Foundation</b>\n<br><span style=\"font-family: monospace\">rock leveled</span>\n<br><a href=\"thumbs/narvik-bunkers_QCK.jpg\" target=\"_blank\"><img width=\"100%\" src=\"thumbs/narvik-bunkers_QCK.jpg\"/></a>\n<br>68.44184,17.38987</div>", "iconImage": "u-red"}, "geometry": {"type": "Point", "coordinates": [17.38987, 68.44184]}}, {"type": "Feature", "properties": {"name": "NQL", "description": "<div style=\"width:100%;\">NQL: <b>Bunker</b>\n<br><span style=\"font-family: monospace\">bunker with blast protection; attached tunnel</span>\n<br><a href=\"thumbs/narvik-bunkers_NQL.jpg\" target=\"_blank\"><img width=\"100%\" src=\"thumbs/narvik-bunkers_NQL.jpg\"/></a>\n<br>68.42316,17.34165</div>", "iconImage": "circle-red"}, "geometry": {"type": "Point", "coordinates": [17.34165, 68.42316]}}, {"type": "Feature", "properties": {"name": "KLN", "description": "<div style=\"width:100%;\">KLN: <b>Battle Station</b>\n<br><span style=\"font-family: monospace\">low-walled battle station; trench</span>\n<br><a href=\"thumbs/narvik-bunkers_KLN.jpg\" target=\"_blank\"><img width=\"100%\" src=\"thumbs/narvik-bunkers_KLN.jpg\"/></a>\n<br>68.44745,17.44025</div>", "iconImage": "circle-red"}, "geometry": {"type": "Point", "coordinates": [17.44025, 68.44745]}}, {"type": "Feature", "properties": {"name": "HDV", "description": "<div style=\"width:100%;\">HDV: <b>Foundation</b>\n<br><span style=\"font-family: monospace\">level ground</span>\n<br><a href=\"thumbs/narvik-bunkers_HDV.jpg\" target=\"_blank\"><img width=\"100%\" src=\"thumbs/narvik-bunkers_HDV.jpg\"/></a>\n<br>68.43022,17.43855</div>", "iconImage": "u-red"}, "geometry": {"type": "Point", "coordinates": [17.43855, 68.43022]}}, {"type": "Feature", "properties": {"name": "HYW", "description": "<div style=\"width:100%;\">HYW: <b>Tunnel</b>\n<br><span style=\"font-family: monospace\">tunnel with door; narrow tunnel entrance; Bogen Verft A/S door</span>\n<br><a href=\"thumbs/narvik-bunkers_HYW.jpg\" target=\"_blank\"><img width=\"100%\" src=\"thumbs/narvik-bunkers_HYW.jpg\"/></a>\n<br>68.44306,17.4355</div>", "iconImage": "rect-red"}, "geometry": {"type": "Point", "coordinates": [17.4355, 68.44306]}}, {"type": "Feature", "properties": {"name": "KZP", "description": "<div style=\"width:100%;\">KZP: <b>Building</b>\n<br><span style=\"font-family: monospace\">bunker-style building</span>\n<br><a href=\"thumbs/narvik-bunkers_KZP.jpg\" target=\"_blank\"><img width=\"100%\" src=\"thumbs/narvik-bunkers_KZP.jpg\"/></a>\n<br>68.46725,17.47621</div>", "iconImage": "circle-red"}, "geometry": {"type": "Point", "coordinates": [17.47621, 68.46725]}}, {"type": "Feature", "properties": {"name": "SRK", "description": "<div style=\"width:100%;\">SRK: <b>Bunker</b>\n<br><span style=\"font-family: monospace\">bunker; damaged</span>\n<br><a href=\"thumbs/narvik-bunkers_SRK.jpg\" target=\"_blank\"><img width=\"100%\" src=\"thumbs/narvik-bunkers_SRK.jpg\"/></a>\n<br>68.39966,17.33744</div>", "iconImage": "circle-red"}, "geometry": {"type": "Point", "coordinates": [17.33744, 68.39966]}}, {"type": "Feature", "properties": {"name": "QRP", "description": "<div style=\"width:100%;\">QRP: <b>Pit</b>\n<br><span style=\"font-family: monospace\">pit</span>\n<br><a href=\"thumbs/narvik-bunkers_QRP.jpg\" target=\"_blank\"><img width=\"100%\" src=\"thumbs/narvik-bunkers_QRP.jpg\"/></a>\n<br>68.4097,17.43168</div>", "iconImage": "u-red"}, "geometry": {"type": "Point", "coordinates": [17.43168, 68.4097]}}, {"type": "Feature", "properties": {"name": "XZY", "description": "<div style=\"width:100%;\">XZY: <b>Platform</b>\n<br><span style=\"font-family: monospace\">small concrete platform/pedestal</span>\n<br><a href=\"thumbs/narvik-bunkers_XZY.jpg\" target=\"_blank\"><img width=\"100%\" src=\"thumbs/narvik-bunkers_XZY.jpg\"/></a>\n<br>68.37234,17.24953</div>", "iconImage": "circle-red"}, "geometry": {"type": "Point", "coordinates": [17.24953, 68.37234]}}, {"type": "Feature", "properties": {"name": "RYY", "description": "<div style=\"width:100%;\">RYY: <b>Battle Station</b>\n<br><span style=\"font-family: monospace\">low-walled battle station; lookout</span>\n<br><a href=\"thumbs/narvik-bunkers_RYY.jpg\" target=\"_blank\"><img width=\"100%\" src=\"thumbs/narvik-bunkers_RYY.jpg\"/></a>\n<br>68.53813,17.216</div>", "iconImage": "circle-red"}, "geometry": {"type": "Point", "coordinates": [17.216, 68.53813]}}, {"type": "Feature", "properties": {"name": "TMW", "description": "<div style=\"width:100%;\">TMW: <b>Battle Station</b>\n<br><span style=\"font-family: monospace\">low-walled battle station; bunker</span>\n<br><a href=\"thumbs/narvik-bunkers_TMW.jpg\" target=\"_blank\"><img width=\"100%\" src=\"thumbs/narvik-bunkers_TMW.jpg\"/></a>\n<br>68.46791,17.47577</div>", "iconImage": "circle-red"}, "geometry": {"type": "Point", "coordinates": [17.47577, 68.46791]}}, {"type": "Feature", "properties": {"name": "NXG", "description": "<div style=\"width:100%;\">NXG: <b>Tunnel</b>\n<br><span style=\"font-family: monospace\">tunnel with barricaded entrance; narrow tunnel entrance; probably Norwegian post-war construction; \"other\" door type</span>\n<br><a href=\"thumbs/narvik-bunkers_NXG.jpg\" target=\"_blank\"><img width=\"100%\" src=\"thumbs/narvik-bunkers_NXG.jpg\"/></a>\n<br>68.437,17.43687</div>", "iconImage": "rect-red"}, "geometry": {"type": "Point", "coordinates": [17.43687, 68.437]}}, {"type": "Feature", "properties": {"name": "YBW", "description": "<div style=\"width:100%;\">YBW: <b>Battle Station</b>\n<br><span style=\"font-family: monospace\">walled battle station</span>\n<br><a href=\"thumbs/narvik-bunkers_YBW.jpg\" target=\"_blank\"><img width=\"100%\" src=\"thumbs/narvik-bunkers_YBW.jpg\"/></a>\n<br>68.43877,17.40146</div>", "iconImage": "circle-red"}, "geometry": {"type": "Point", "coordinates": [17.40146, 68.43877]}}, {"type": "Feature", "properties": {"name": "WHR", "description": "<div style=\"width:100%;\">WHR: <b>Trench</b>\n<br><span style=\"font-family: monospace\">deep and wide trench; unfinished; probably Norwegian post-war construction</span>\n<br><a href=\"thumbs/narvik-bunkers_WHR.jpg\" target=\"_blank\"><img width=\"100%\" src=\"thumbs/narvik-bunkers_WHR.jpg\"/></a>\n<br>68.41413,16.5599</div>", "iconImage": "circle-red"}, "geometry": {"type": "Point", "coordinates": [16.5599, 68.41413]}}, {"type": "Feature", "properties": {"name": "KMW", "description": "<div style=\"width:100%;\">KMW: <b>Tunnel</b>\n<br><span style=\"font-family: monospace\">shelter-like tunnel stub</span>\n<br><a href=\"thumbs/narvik-bunkers_KMW.jpg\" target=\"_blank\"><img width=\"100%\" src=\"thumbs/narvik-bunkers_KMW.jpg\"/></a>\n<br>68.50247,16.92671</div>", "iconImage": "rect-red"}, "geometry": {"type": "Point", "coordinates": [16.92671, 68.50247]}}, {"type": "Feature", "properties": {"name": "NPC", "description": "<div style=\"width:100%;\">NPC: <b>Trench</b>\n<br><span style=\"font-family: monospace\">lookout</span>\n<br><a href=\"thumbs/narvik-bunkers_NPC.jpg\" target=\"_blank\"><img width=\"100%\" src=\"thumbs/narvik-bunkers_NPC.jpg\"/></a>\n<br>68.50579,17.08708</div>", "iconImage": "circle-red"}, "geometry": {"type": "Point", "coordinates": [17.08708, 68.50579]}}, {"type": "Feature", "properties": {"name": "VVH", "description": "<div style=\"width:100%;\">VVH: <b>Battle Station</b>\n<br><span style=\"font-family: monospace\">battle station</span>\n<br><a href=\"thumbs/narvik-bunkers_VVH.jpg\" target=\"_blank\"><img width=\"100%\" src=\"thumbs/narvik-bunkers_VVH.jpg\"/></a>\n<br>68.46279,17.02523</div>", "iconImage": "circle-red"}, "geometry": {"type": "Point", "coordinates": [17.02523, 68.46279]}}, {"type": "Feature", "properties": {"name": "BCL", "description": "<div style=\"width:100%;\">BCL: <b>Battle Station</b>\n<br><span style=\"font-family: monospace\">low-walled battle station</span>\n<br><a href=\"thumbs/narvik-bunkers_BCL.jpg\" target=\"_blank\"><img width=\"100%\" src=\"thumbs/narvik-bunkers_BCL.jpg\"/></a>\n<br>68.43507,17.44038</div>", "iconImage": "circle-red"}, "geometry": {"type": "Point", "coordinates": [17.44038, 68.43507]}}, {"type": "Feature", "properties": {"name": "PHL", "description": "<div style=\"width:100%;\">PHL: <b>Foundation</b>\n<br><span style=\"font-family: monospace\">rock leveled</span>\n<br><a href=\"thumbs/narvik-bunkers_PHL.jpg\" target=\"_blank\"><img width=\"100%\" src=\"thumbs/narvik-bunkers_PHL.jpg\"/></a>\n<br>68.41987,16.59254</div>", "iconImage": "u-red"}, "geometry": {"type": "Point", "coordinates": [16.59254, 68.41987]}}, {"type": "Feature", "properties": {"name": "DZZ", "description": "<div style=\"width:100%;\">DZZ: <b>Battle Station</b>\n<br><span style=\"font-family: monospace\">high-walled battle station; ammunition bunker/shelter</span>\n<br><a href=\"thumbs/narvik-bunkers_DZZ.jpg\" target=\"_blank\"><img width=\"100%\" src=\"thumbs/narvik-bunkers_DZZ.jpg\"/></a>\n<br>68.38292,17.04334</div>", "iconImage": "circle-red"}, "geometry": {"type": "Point", "coordinates": [17.04334, 68.38292]}}, {"type": "Feature", "properties": {"name": "LSX", "description": "<div style=\"width:100%;\">LSX: <b>Building</b>\n<br><span style=\"font-family: monospace\">low foundations of building; unknown origin</span>\n<br><a href=\"thumbs/narvik-bunkers_LSX.jpg\" target=\"_blank\"><img width=\"100%\" src=\"thumbs/narvik-bunkers_LSX.jpg\"/></a>\n<br>68.39937,17.96659</div>", "iconImage": "circle-red"}, "geometry": {"type": "Point", "coordinates": [17.96659, 68.39937]}}, {"type": "Feature", "properties": {"name": "NNQ", "description": "<div style=\"width:100%;\">NNQ: <b>Tunnel</b>\n<br><span style=\"font-family: monospace\">tunnel with door; narrow tunnel entrance; \"other\" door type</span>\n<br><a href=\"thumbs/narvik-bunkers_NNQ.jpg\" target=\"_blank\"><img width=\"100%\" src=\"thumbs/narvik-bunkers_NNQ.jpg\"/></a>\n<br>68.43767,17.42972</div>", "iconImage": "rect-red"}, "geometry": {"type": "Point", "coordinates": [17.42972, 68.43767]}}, {"type": "Feature", "properties": {"name": "ZQS", "description": "<div style=\"width:100%;\">ZQS: <b>Pit</b>\n<br><span style=\"font-family: monospace\">pit</span>\n<br><a href=\"thumbs/narvik-bunkers_ZQS.jpg\" target=\"_blank\"><img width=\"100%\" src=\"thumbs/narvik-bunkers_ZQS.jpg\"/></a>\n<br>68.38337,17.04484</div>", "iconImage": "u-red"}, "geometry": {"type": "Point", "coordinates": [17.04484, 68.38337]}}, {"type": "Feature", "properties": {"name": "KST", "description": "<div style=\"width:100%;\">KST: <b>Building</b>\n<br><span style=\"font-family: monospace\">building walls</span>\n<br><a href=\"thumbs/narvik-bunkers_KST.jpg\" target=\"_blank\"><img width=\"100%\" src=\"thumbs/narvik-bunkers_KST.jpg\"/></a>\n<br>68.39518,17.25465</div>", "iconImage": "circle-red"}, "geometry": {"type": "Point", "coordinates": [17.25465, 68.39518]}}, {"type": "Feature", "properties": {"name": "LHB", "description": "<div style=\"width:100%;\">LHB: <b>Shelter</b>\n<br><span style=\"font-family: monospace\">place of a shelter</span>\n<br><a href=\"thumbs/narvik-bunkers_LHB.jpg\" target=\"_blank\"><img width=\"100%\" src=\"thumbs/narvik-bunkers_LHB.jpg\"/></a>\n<br>68.41879,16.58994</div>", "iconImage": "circle-red"}, "geometry": {"type": "Point", "coordinates": [16.58994, 68.41879]}}, {"type": "Feature", "properties": {"name": "KDD", "description": "<div style=\"width:100%;\">KDD: <b>Bunker</b>\n<br><span style=\"font-family: monospace\">bunker with blast protection</span>\n<br><a href=\"thumbs/narvik-bunkers_KDD.jpg\" target=\"_blank\"><img width=\"100%\" src=\"thumbs/narvik-bunkers_KDD.jpg\"/></a>\n<br>68.50479,17.08469</div>", "iconImage": "circle-red"}, "geometry": {"type": "Point", "coordinates": [17.08469, 68.50479]}}, {"type": "Feature", "properties": {"name": "GVG", "description": "<div style=\"width:100%;\">GVG: <b>Building</b>\n<br><span style=\"font-family: monospace\">low foundations of building; unknown origin</span>\n<br><a href=\"thumbs/narvik-bunkers_GVG.jpg\" target=\"_blank\"><img width=\"100%\" src=\"thumbs/narvik-bunkers_GVG.jpg\"/></a>\n<br>68.41925,17.30698</div>", "iconImage": "circle-red"}, "geometry": {"type": "Point", "coordinates": [17.30698, 68.41925]}}, {"type": "Feature", "properties": {"name": "CGK", "description": "<div style=\"width:100%;\">CGK: <b>Tunnel</b>\n<br><span style=\"font-family: monospace\">open tunnel, no masonry; narrow tunnel entrance; damaged</span>\n<br><a href=\"thumbs/narvik-bunkers_CGK.jpg\" target=\"_blank\"><img width=\"100%\" src=\"thumbs/narvik-bunkers_CGK.jpg\"/></a>\n<br>68.52807,17.4466</div>", "iconImage": "rect-red"}, "geometry": {"type": "Point", "coordinates": [17.4466, 68.52807]}}, {"type": "Feature", "properties": {"name": "CCZ", "description": "<div style=\"width:100%;\">CCZ: <b>Building</b>\n<br><span style=\"font-family: monospace\">building lowered into ground; trench</span>\n<br><a href=\"thumbs/narvik-bunkers_CCZ.jpg\" target=\"_blank\"><img width=\"100%\" src=\"thumbs/narvik-bunkers_CCZ.jpg\"/></a>\n<br>68.44359,17.43695</div>", "iconImage": "u-red"}, "geometry": {"type": "Point", "coordinates": [17.43695, 68.44359]}}, {"type": "Feature", "properties": {"name": "TLC", "description": "<div style=\"width:100%;\">TLC: <b>Building</b>\n<br><span style=\"font-family: monospace\">stone building; trench</span>\n<br><a href=\"thumbs/narvik-bunkers_TLC.jpg\" target=\"_blank\"><img width=\"100%\" src=\"thumbs/narvik-bunkers_TLC.jpg\"/></a>\n<br>68.55001,17.52172</div>", "iconImage": "circle-red"}, "geometry": {"type": "Point", "coordinates": [17.52172, 68.55001]}}, {"type": "Feature", "properties": {"name": "MWG", "description": "<div style=\"width:100%;\">MWG: <b>Building</b>\n<br><span style=\"font-family: monospace\">building lowered into ground</span>\n<br><a href=\"thumbs/narvik-bunkers_MWG.jpg\" target=\"_blank\"><img width=\"100%\" src=\"thumbs/narvik-bunkers_MWG.jpg\"/></a>\n<br>68.4319,17.38863</div>", "iconImage": "u-red"}, "geometry": {"type": "Point", "coordinates": [17.38863, 68.4319]}}, {"type": "Feature", "properties": {"name": "TVZ", "description": "<div style=\"width:100%;\">TVZ: <b>Foundation</b>\n<br><span style=\"font-family: monospace\">rock leveled</span>\n<br><a href=\"thumbs/narvik-bunkers_TVZ.jpg\" target=\"_blank\"><img width=\"100%\" src=\"thumbs/narvik-bunkers_TVZ.jpg\"/></a>\n<br>68.37163,17.42623</div>", "iconImage": "u-red"}, "geometry": {"type": "Point", "coordinates": [17.42623, 68.37163]}}, {"type": "Feature", "properties": {"name": "SHS", "description": "<div style=\"width:100%;\">SHS: <b>Battle Station</b>\n<br><span style=\"font-family: monospace\">battle station at end of a trench; trench</span>\n<br><a href=\"thumbs/narvik-bunkers_SHS.jpg\" target=\"_blank\"><img width=\"100%\" src=\"thumbs/narvik-bunkers_SHS.jpg\"/></a>\n<br>68.44618,17.43556</div>", "iconImage": "circle-red"}, "geometry": {"type": "Point", "coordinates": [17.43556, 68.44618]}}, {"type": "Feature", "properties": {"name": "XCD", "description": "<div style=\"width:100%;\">XCD: <b>Dock</b>\n<br><span style=\"font-family: monospace\">dock; damaged</span>\n<br><a href=\"thumbs/narvik-bunkers_XCD.jpg\" target=\"_blank\"><img width=\"100%\" src=\"thumbs/narvik-bunkers_XCD.jpg\"/></a>\n<br>68.19381,17.33529</div>", "iconImage": "circle-red"}, "geometry": {"type": "Point", "coordinates": [17.33529, 68.19381]}}, {"type": "Feature", "properties": {"name": "MSP", "description": "<div style=\"width:100%;\">MSP: <b>Building</b>\n<br><span style=\"font-family: monospace\">building walls</span>\n<br><a href=\"thumbs/narvik-bunkers_MSP.jpg\" target=\"_blank\"><img width=\"100%\" src=\"thumbs/narvik-bunkers_MSP.jpg\"/></a>\n<br>68.46996,17.48353</div>", "iconImage": "circle-red"}, "geometry": {"type": "Point", "coordinates": [17.48353, 68.46996]}}, {"type": "Feature", "properties": {"name": "JTY", "description": "<div style=\"width:100%;\">JTY: <b>Dock</b>\n<br><span style=\"font-family: monospace\">dock; unknown origin</span>\n<br><a href=\"thumbs/narvik-bunkers_JTY.jpg\" target=\"_blank\"><img width=\"100%\" src=\"thumbs/narvik-bunkers_JTY.jpg\"/></a>\n<br>68.35575,17.01755</div>", "iconImage": "circle-red"}, "geometry": {"type": "Point", "coordinates": [17.01755, 68.35575]}}, {"type": "Feature", "properties": {"name": "YYS", "description": "<div style=\"width:100%;\">YYS: <b>Tunnel</b>\n<br><span style=\"font-family: monospace\">single-person shelter tunnel</span>\n<br><a href=\"thumbs/narvik-bunkers_YYS.jpg\" target=\"_blank\"><img width=\"100%\" src=\"thumbs/narvik-bunkers_YYS.jpg\"/></a>\n<br>68.37513,17.2532</div>", "iconImage": "rect-red"}, "geometry": {"type": "Point", "coordinates": [17.2532, 68.37513]}}, {"type": "Feature", "properties": {"name": "KDZ", "description": "<div style=\"width:100%;\">KDZ: <b>Platform</b>\n<br><span style=\"font-family: monospace\">small concrete platform/pedestal</span>\n<br><a href=\"thumbs/narvik-bunkers_KDZ.jpg\" target=\"_blank\"><img width=\"100%\" src=\"thumbs/narvik-bunkers_KDZ.jpg\"/></a>\n<br>68.41757,17.43158</div>", "iconImage": "circle-red"}, "geometry": {"type": "Point", "coordinates": [17.43158, 68.41757]}}, {"type": "Feature", "properties": {"name": "XYD", "description": "<div style=\"width:100%;\">XYD: <b>Battle Station</b>\n<br><span style=\"font-family: monospace\">low-walled battle station</span>\n<br><a href=\"thumbs/narvik-bunkers_XYD.jpg\" target=\"_blank\"><img width=\"100%\" src=\"thumbs/narvik-bunkers_XYD.jpg\"/></a>\n<br>68.42994,17.43515</div>", "iconImage": "circle-red"}, "geometry": {"type": "Point", "coordinates": [17.43515, 68.42994]}}, {"type": "Feature", "properties": {"name": "TCH", "description": "<div style=\"width:100%;\">TCH: <b>Battle Station</b>\n<br><span style=\"font-family: monospace\">high-walled battle station; bunker with straight entrance</span>\n<br><a href=\"thumbs/narvik-bunkers_TCH.jpg\" target=\"_blank\"><img width=\"100%\" src=\"thumbs/narvik-bunkers_TCH.jpg\"/></a>\n<br>68.47038,17.4839</div>", "iconImage": "circle-red"}, "geometry": {"type": "Point", "coordinates": [17.4839, 68.47038]}}, {"type": "Feature", "properties": {"name": "WZV", "description": "<div style=\"width:100%;\">WZV: <b>Tunnel</b>\n<br><span style=\"font-family: monospace\">open tunnel, masonry; wide tunnel entrace; unknown origin</span>\n<br><a href=\"thumbs/narvik-bunkers_WZV.jpg\" target=\"_blank\"><img width=\"100%\" src=\"thumbs/narvik-bunkers_WZV.jpg\"/></a>\n<br>68.35549,17.01741</div>", "iconImage": "rect-red"}, "geometry": {"type": "Point", "coordinates": [17.01741, 68.35549]}}, {"type": "Feature", "properties": {"name": "ZTK", "description": "<div style=\"width:100%;\">ZTK: <b>Battle Station</b>\n<br><span style=\"font-family: monospace\">high-walled battle station</span>\n<br><a href=\"thumbs/narvik-bunkers_ZTK.jpg\" target=\"_blank\"><img width=\"100%\" src=\"thumbs/narvik-bunkers_ZTK.jpg\"/></a>\n<br>68.47066,17.4835</div>", "iconImage": "circle-red"}, "geometry": {"type": "Point", "coordinates": [17.4835, 68.47066]}}, {"type": "Feature", "properties": {"name": "CJZ", "description": "<div style=\"width:100%;\">CJZ: <b>Tunnel</b>\n<br><span style=\"font-family: monospace\">open tunnel, no masonry; narrow tunnel entrance; removed; probably Norwegian civilian pre-war construction</span>\n<br><a href=\"thumbs/narvik-bunkers_CJZ.jpg\" target=\"_blank\"><img width=\"100%\" src=\"thumbs/narvik-bunkers_CJZ.jpg\"/></a>\n<br>68.4457,17.51595</div>", "iconImage": "cross-red"}, "geometry": {"type": "Point", "coordinates": [17.51595, 68.4457]}}, {"type": "Feature", "properties": {"name": "RYB", "description": "<div style=\"width:100%;\">RYB: <b>Building</b>\n<br><span style=\"font-family: monospace\">building walls</span>\n<br><a href=\"thumbs/narvik-bunkers_RYB.jpg\" target=\"_blank\"><img width=\"100%\" src=\"thumbs/narvik-bunkers_RYB.jpg\"/></a>\n<br>68.50481,17.08001</div>", "iconImage": "circle-red"}, "geometry": {"type": "Point", "coordinates": [17.08001, 68.50481]}}, {"type": "Feature", "properties": {"name": "VZT", "description": "<div style=\"width:100%;\">VZT: <b>Pit</b>\n<br><span style=\"font-family: monospace\">pit; unknown origin</span>\n<br><a href=\"thumbs/narvik-bunkers_VZT.jpg\" target=\"_blank\"><img width=\"100%\" src=\"thumbs/narvik-bunkers_VZT.jpg\"/></a>\n<br>68.39991,17.96464</div>", "iconImage": "u-red"}, "geometry": {"type": "Point", "coordinates": [17.96464, 68.39991]}}, {"type": "Feature", "properties": {"name": "QRZ", "description": "<div style=\"width:100%;\">QRZ: <b>Building</b>\n<br><span style=\"font-family: monospace\">building lowered into ground</span>\n<br><a href=\"thumbs/narvik-bunkers_QRZ.jpg\" target=\"_blank\"><img width=\"100%\" src=\"thumbs/narvik-bunkers_QRZ.jpg\"/></a>\n<br>68.44408,17.43526</div>", "iconImage": "u-red"}, "geometry": {"type": "Point", "coordinates": [17.43526, 68.44408]}}, {"type": "Feature", "properties": {"name": "NTP", "description": "<div style=\"width:100%;\">NTP: <b>Battle Station</b>\n<br><span style=\"font-family: monospace\">high-walled battle station; ammunition bunker/shelter</span>\n<br><a href=\"thumbs/narvik-bunkers_NTP.jpg\" target=\"_blank\"><img width=\"100%\" src=\"thumbs/narvik-bunkers_NTP.jpg\"/></a>\n<br>68.49835,17.07594</div>", "iconImage": "circle-red"}, "geometry": {"type": "Point", "coordinates": [17.07594, 68.49835]}}, {"type": "Feature", "properties": {"name": "WKL", "description": "<div style=\"width:100%;\">WKL: <b>Bunker</b>\n<br><span style=\"font-family: monospace\">bunker with blast protection; multiple bunker rooms; block construction</span>\n<br><a href=\"thumbs/narvik-bunkers_WKL.jpg\" target=\"_blank\"><img width=\"100%\" src=\"thumbs/narvik-bunkers_WKL.jpg\"/></a>\n<br>68.42932,17.43783</div>", "iconImage": "circle-red"}, "geometry": {"type": "Point", "coordinates": [17.43783, 68.42932]}}, {"type": "Feature", "properties": {"name": "PNT", "description": "<div style=\"width:100%;\">PNT: <b>Building</b>\n<br><span style=\"font-family: monospace\">low foundations of building</span>\n<br><a href=\"thumbs/narvik-bunkers_PNT.jpg\" target=\"_blank\"><img width=\"100%\" src=\"thumbs/narvik-bunkers_PNT.jpg\"/></a>\n<br>68.45773,17.02027</div>", "iconImage": "circle-red"}, "geometry": {"type": "Point", "coordinates": [17.02027, 68.45773]}}, {"type": "Feature", "properties": {"name": "VBY", "description": "<div style=\"width:100%;\">VBY: <b>Foundation</b>\n<br><span style=\"font-family: monospace\">rock leveled</span>\n<br><a href=\"thumbs/narvik-bunkers_VBY.jpg\" target=\"_blank\"><img width=\"100%\" src=\"thumbs/narvik-bunkers_VBY.jpg\"/></a>\n<br>68.44783,17.44052</div>", "iconImage": "u-red"}, "geometry": {"type": "Point", "coordinates": [17.44052, 68.44783]}}, {"type": "Feature", "properties": {"name": "NMS", "description": "<div style=\"width:100%;\">NMS: <b>Bunker</b>\n<br><span style=\"font-family: monospace\">bunker with no visible entrance; block construction</span>\n<br><a href=\"thumbs/narvik-bunkers_NMS.jpg\" target=\"_blank\"><img width=\"100%\" src=\"thumbs/narvik-bunkers_NMS.jpg\"/></a>\n<br>68.42532,17.43008</div>", "iconImage": "circle-red"}, "geometry": {"type": "Point", "coordinates": [17.43008, 68.42532]}}, {"type": "Feature", "properties": {"name": "DLY", "description": "<div style=\"width:100%;\">DLY: <b>Building</b>\n<br><span style=\"font-family: monospace\">building walls; unknown origin</span>\n<br><a href=\"thumbs/narvik-bunkers_DLY.jpg\" target=\"_blank\"><img width=\"100%\" src=\"thumbs/narvik-bunkers_DLY.jpg\"/></a>\n<br>68.39587,17.83321</div>", "iconImage": "circle-red"}, "geometry": {"type": "Point", "coordinates": [17.83321, 68.39587]}}, {"type": "Feature", "properties": {"name": "WRH", "description": "<div style=\"width:100%;\">WRH: <b>Platform</b>\n<br><span style=\"font-family: monospace\">small concrete platform/pedestal; probably Norwegian post-war construction</span>\n<br><a href=\"thumbs/narvik-bunkers_WRH.jpg\" target=\"_blank\"><img width=\"100%\" src=\"thumbs/narvik-bunkers_WRH.jpg\"/></a>\n<br>68.41513,16.56157</div>", "iconImage": "circle-red"}, "geometry": {"type": "Point", "coordinates": [16.56157, 68.41513]}},