{"type": "geojson", "data": {"type": "FeatureCollection", "features": [{"type": "Feature", "properties": {"name": "JBR", "description": "<div style=\"width:100%;\">JBR: <b>Foundation</b>\n<br><span style=\"font-family: monospace\">rock leveled</span>\n<br><a href=\"thumbs/narvik-bunkers_JBR.jpg\" target=\"_blank\"><img width=\"100%\" src=\"thumbs/narvik-bunkers_JBR.jpg\"/></a>\n<br>68.44275,17.39741</div>", "iconImage": "u-red"}, "geometry": {"type": "Point", "coordinates": [17.39741, 68.44275]}}, {"type": "Feature", "properties": {"name": "KKQ", "description": "<div style=\"width:100%;\">KKQ: <b>Pit</b>\n<br><span style=\"font-family: monospace\">pit</span>\n<br><a href=\"thumbs/narvik-bunkers_KKQ.jpg\" target=\"_blank\"><img width=\"100%\" src=\"thumbs/narvik-bunkers_KKQ.jpg\"/></a>\n<br>68.44262,17.39677</div>", "iconImage": "u-red"}, "geometry": {"type": "Point", "coordinates": [17.39677, 68.44262]}}, {"type": "Feature", "properties": {"name": "SWK", "description": "<div style=\"width:100%;\">SWK: <b>Building</b>\n<br><span style=\"font-family: monospace\">low foundations of building; building lowered into ground</span>\n<br><a href=\"thumbs/narvik-bunkers_SWK.jpg\" target=\"_blank\"><img width=\"100%\" src=\"thumbs/narvik-bunkers_SWK.jpg\"/></a>\n<br>68.43582,17.39329</div>", "iconImage": "circle-red"}, "geometry": {"type": "Point", "coordinates": [17.39329, 68.43582]}}, {"type": "Feature", "properties": {"name": "MTW", "description": "<div style=\"width:100%;\">MTW: <b>Battle Station</b>\n<br><span style=\"font-family: monospace\">battle station at end of a trench; roof over trench; trench</span>\n<br><a href=\"thumbs/narvik-bunkers_MTW.jpg\" target=\"_blank\"><img width=\"100%\" src=\"thumbs/narvik-bunkers_MTW.jpg\"/></a>\n<br>68.4329,17.43604</div>", "iconImage": "circle-red"}, "geometry": {"type": "Point", "coordinates": [17.43604, 68.4329]}}, {"type": "Feature", "properties": {"name": "NDX", "description": "<div style=\"width:100%;\">NDX: <b>Foundation</b>\n<br><span style=\"font-family: monospace\">rock leveled</span>\n<br><a href=\"thumbs/narvik-bunkers_NDX.jpg\" target=\"_blank\"><img width=\"100%\" src=\"thumbs/narvik-bunkers_NDX.jpg\"/></a>\n<br>68.37139,17.42749</div>", "iconImage": "u-red"}, "geometry": {"type": "Point", "coordinates": [17.42749, 68.37139]}}, {"type": "Feature", "properties": {"name": "DPQ", "description": "<div style=\"width:100%;\">DPQ: <b>Battle Station</b>\n<br><span style=\"font-family: monospace\">battle station; removed</span>\n<br><a href=\"thumbs/narvik-bunkers_DPQ.jpg\" target=\"_blank\"><img width=\"100%\" src=\"thumbs/narvik-bunkers_DPQ.jpg\"/></a>\n<br>68.44272,17.41099</div>", "iconImage": "cross-red"}, "geometry": {"type": "Point", "coordinates": [17.41099, 68.44272]}}, {"type": "Feature", "properties": {"name": "STP", "description": "<div style=\"width:100%;\">STP: <b>Trench</b>\n<br><span style=\"font-family: monospace\">lookout; battle station</span>\n<br><a href=\"thumbs/narvik-bunkers_STP.jpg\" target=\"_blank\"><img width=\"100%\" src=\"thumbs/narvik-bunkers_STP.jpg\"/></a>\n<br>68.4187,17.31397</div>", "iconImage": "circle-red"}, "geometry": {"type": "Point", "coordinates": [17.31397, 68.4187]}}, {"type": "Feature", "properties": {"name": "RSZ", "description": "<div style=\"width:100%;\">RSZ: <b>Trench</b>\n<br><span style=\"font-family: monospace\">lookout</span>\n<br><a href=\"thumbs/narvik-bunkers_RSZ.jpg\" target=\"_blank\"><img width=\"100%\" src=\"thumbs/narvik-bunkers_RSZ.jpg\"/></a>\n<br>68.41934,16.63887</div>", "iconImage": "circle-red"}, "geometry": {"type": "Point", "coordinates": [16.63887, 68.41934]}}, {"type": "Feature", "properties": {"name": "HNB", "description": "<div style=\"width:100%;\">HNB: <b>Building</b>\n<br><span style=\"font-family: monospace\">building with windows</span>\n<br><a href=\"thumbs/narvik-bunkers_HNB.jpg\" target=\"_blank\"><img width=\"100%\" src=\"thumbs/narvik-bunkers_HNB.jpg\"/></a>\n<br>68.45712,17.01981</div>", "iconImage": "circle-red"}, "geometry": {"type": "Point", "coordinates": [17.01981, 68.45712]}}, {"type": "Feature", "properties": {"name": "TVZ", "description": "<div style=\"width:100%;\">TVZ: <b>Foundation</b>\n<br><span style=\"font-family: monospace\">rock leveled</span>\n<br><a href=\"thumbs/narvik-bunkers_TVZ.jpg\" target=\"_blank\"><img width=\"100%\" src=\"thumbs/narvik-bunkers_TVZ.jpg\"/></a>\n<br>68.37163,17.42623</div>", "iconImage": "u-red"}, "geometry": {"type": "Point", "coordinates": [17.42623, 68.37163]}}, {"type": "Feature", "properties": {"name": "KRL", "description": "<div style=\"width:100%;\">KRL: <b>Battle Station</b>\n<br><span style=\"font-family: monospace\">high-walled battle station; ammunition bunker/shelter</span>\n<br><a href=\"thumbs/narvik-bunkers_KRL.jpg\" target=\"_blank\"><img width=\"100%\" src=\"thumbs/narvik-bunkers_KRL.jpg\"/></a>\n<br>68.42083,16.63824</div>", "iconImage": "circle-red"}, "geometry": {"type": "Point", "coordinates": [16.63824, 68.42083]}}, {"type": "Feature", "properties": {"name": "DMV", "description": "<div style=\"width:100%;\">DMV: <b>Other</b>\n<br><span style=\"font-family: monospace\">other</span>\n<br><a href=\"thumbs/narvik-bunkers_DMV.jpg\" target=\"_blank\"><img width=\"100%\" src=\"thumbs/narvik-bunkers_DMV.jpg\"/></a>\n<br>68.44764,17.41507</div>", "iconImage": "circle-red"}, "geometry": {"type": "Point", "coordinates": [17.41507, 68.44764]}}, {"type": "Feature", "properties": {"name": "SNG", "description": "<div style=\"width:100%;\">SNG: <b>Pit</b>\n<br><span style=\"font-family: monospace\">pit; blasted rock; trench</span>\n<br><a href=\"thumbs/narvik-bunkers_SNG.jpg\" target=\"_blank\"><img width=\"100%\" src=\"thumbs/narvik-bunkers_SNG.jpg\"/></a>\n<br>68.4389,17.40196</div>", "iconImage": "u-red"}, "geometry": {"type": "Point", "coordinates": [17.40196, 68.4389]}}, {"type": "Feature", "properties": {"name": "JRJ", "description": "<div style=\"width:100%;\">JRJ: <b>Pit</b>\n<br><span style=\"font-family: monospace\">blasted rock</span>\n<br><a href=\"thumbs/narvik-bunkers_JRJ.jpg\" target=\"_blank\"><img width=\"100%\" src=\"thumbs/narvik-bunkers_JRJ.jpg\"/></a>\n<br>68.52591,17.00387</div>", "iconImage": "circle-red"}, "geometry": {"type": "Point", "coordinates": [17.00387, 68.52591]}}, {"type": "Feature", "properties": {"name": "KDP", "description": "<div style=\"width:100%;\">KDP: <b>Foundation</b>\n<br><span style=\"font-family: monospace\">rock leveled</span>\n<br><a href=\"thumbs/narvik-bunkers_KDP.jpg\" target=\"_blank\"><img width=\"100%\" src=\"thumbs/narvik-bunkers_KDP.jpg\"/></a>\n<br>68.372,17.42532</div>", "iconImage": "u-red"}, "geometry": {"type": "Point", "coordinates": [17.42532, 68.372]}}, {"type": "Feature", "properties": {"name": "LQQ", "description": "<div style=\"width:100%;\">LQQ: <b>Bunker</b>\n<br><span style=\"font-family: monospace\">bunker with straight entrance; trench</span>\n<br><a href=\"thumbs/narvik-bunkers_LQQ.jpg\" target=\"_blank\"><img width=\"100%\" src=\"thumbs/narvik-bunkers_LQQ.jpg\"/></a>\n<br>68.446034,17.436428</div>", "iconImage": "circle-red"}, "geometry": {"type": "Point", "coordinates": [17.436428, 68.446034]}}, {"type": "Feature", "properties": {"name": "JMH", "description": "<div style=\"width:100%;\">JMH: <b>Platform</b>\n<br><span style=\"font-family: monospace\">small concrete platform/pedestal</span>\n<br><a href=\"thumbs/narvik-bunkers_JMH.jpg\" target=\"_blank\"><img width=\"100%\" src=\"thumbs/narvik-bunkers_JMH.jpg\"/></a>\n<br>68.44099,17.38813</div>", "iconImage": "circle-red"}, "geometry": {"type": "Point", "coordinates": [17.38813, 68.44099]}}, {"type": "Feature", "properties": {"name": "ZMC", "description": "<div style=\"width:100%;\">ZMC: <b>Foundation</b>\n<br><span style=\"font-family: monospace\">rock leveled</span>\n<br><a href=\"thumbs/narvik-bunkers_ZMC.jpg\" target=\"_blank\"><img width=\"100%\" src=\"thumbs/narvik-bunkers_ZMC.jpg\"/></a>\n<br>68.44755,17.41787</div>", "iconImage": "u-red"}, "geometry": {"type": "Point", "coordinates": [17.41787, 68.44755]}}, {"type": "Feature", "properties": {"name": "PHV", "description": "<div style=\"width:100%;\">PHV: <b>Tunnel</b>\n<br><span style=\"font-family: monospace\">tunnel with door; narrow tunnel entrance; Gasschutztür 723P3 (1.7 m, w/o Sekurit sight)</span>\n<br><a href=\"thumbs/narvik-bunkers_PHV.jpg\" target=\"_blank\"><img width=\"100%\" src=\"thumbs/narvik-bunkers_PHV.jpg\"/></a>\n<br>68.43761,17.42952</div>", "iconImage": "rect-red"}, "geometry": {"type": "Point", "coordinates": [17.42952, 68.43761]}}, {"type": "Feature", "properties": {"name": "SKY", "description": "<div style=\"width:100%;\">SKY: <b>Building</b>\n<br><span style=\"font-family: monospace\">low foundations of building</span>\n<br><a href=\"thumbs/narvik-bunkers_SKY.jpg\" target=\"_blank\"><img width=\"100%\" src=\"thumbs/narvik-bunkers_SKY.jpg\"/></a>\n<br>68.44095,17.65079</div>", "iconImage": "circle-red"}, "geometry": {"type": "Point", "coordinates": [17.65079, 68.44095]}}, {"type": "Feature", "properties": {"name": "TTR", "description": "<div style=\"width:100%;\">TTR: <b>Bunker</b>\n<br><span style=\"font-family: monospace\">bunker with straight entrance; trench</span>\n<br><a href=\"thumbs/narvik-bunkers_TTR.jpg\" target=\"_blank\"><img width=\"100%\" src=\"thumbs/narvik-bunkers_TTR.jpg\"/></a>\n<br>68.440505,17.396266</div>", "iconImage": "circle-red"}, "geometry": {"type": "Point", "coordinates": [17.396266, 68.440505]}}, {"type": "Feature", "properties": {"name": "XVX", "description": "<div style=\"width:100%;\">XVX: <b>Bunker</b>\n<br><span style=\"font-family: monospace\">ammunition bunker/shelter; walled battle station</span>\n<br><a href=\"thumbs/narvik-bunkers_XVX.jpg\" target=\"_blank\"><img width=\"100%\" src=\"thumbs/narvik-bunkers_XVX.jpg\"/></a>\n<br>68.43555,17.39498</div>", "iconImage": "circle-red"}, "geometry": {"type": "Point", "coordinates": [17.39498, 68.43555]}}, {"type": "Feature", "properties": {"name": "GCJ", "description": "<div style=\"width:100%;\">GCJ: <b>Bunker</b>\n<br><span style=\"font-family: monospace\">multi-story bunker</span>\n<br><a href=\"thumbs/narvik-bunkers_GCJ.jpg\" target=\"_blank\"><img width=\"100%\" src=\"thumbs/narvik-bunkers_GCJ.jpg\"/></a>\n<br>68.42942,17.42566</div>", "iconImage": "circle-red"}, "geometry": {"type": "Point", "coordinates": [17.42566, 68.42942]}}, {"type": "Feature", "properties": {"name": "HGG", "description": "<div style=\"width:100%;\">HGG: <b>Bunker</b>\n<br><span style=\"font-family: monospace\">bunker with straight entrance; embrasure</span>\n<br><a href=\"thumbs/narvik-bunkers_HGG.jpg\" target=\"_blank\"><img width=\"100%\" src=\"thumbs/narvik-bunkers_HGG.jpg\"/></a>\n<br>68.40545,17.41686</div>", "iconImage": "circle-red"}, "geometry": {"type": "Point", "coordinates": [17.41686, 68.40545]}}, {"type": "Feature", "properties": {"name": "TVC", "description": "<div style=\"width:100%;\">TVC: <b>Trench</b>\n<br><span style=\"font-family: monospace\">lookout</span>\n<br><a href=\"thumbs/narvik-bunkers_TVC.jpg\" target=\"_blank\"><img width=\"100%\" src=\"thumbs/narvik-bunkers_TVC.jpg\"/></a>\n<br>68.44718,17.41104</div>", "iconImage": "circle-red"}, "geometry": {"type": "Point", "coordinates": [17.41104, 68.44718]}}, {"type": "Feature", "properties": {"name": "XBS", "description": "<div style=\"width:100%;\">XBS: <b>Tunnel</b>\n<br><span style=\"font-family: monospace\">tunnel with door; narrow tunnel entrance; \"other\" door type</span>\n<br><a href=\"thumbs/narvik-bunkers_XBS.jpg\" target=\"_blank\"><img width=\"100%\" src=\"thumbs/narvik-bunkers_XBS.jpg\"/></a>\n<br>68.43791,17.43002</div>", "iconImage": "rect-red"}, "geometry": {"type": "Point", "coordinates": [17.43002, 68.43791]}}, {"type": "Feature", "properties": {"name": "SBH", "description": "<div style=\"width:100%;\">SBH: <b>Building</b>\n<br><span style=\"font-family: monospace\">low foundations of building</span>\n<br><a href=\"thumbs/narvik-bunkers_SBH.jpg\" target=\"_blank\"><img width=\"100%\" src=\"thumbs/narvik-bunkers_SBH.jpg\"/></a>\n<br>68.46578,17.47828</div>", "iconImage": "circle-red"}, "geometry": {"type": "Point", "coordinates": [17.47828, 68.46578]}}, {"type": "Feature", "properties": {"name": "TJT", "description": "<div style=\"width:100%;\">TJT: <b>Building</b>\n<br><span style=\"font-family: monospace\">low foundations of building; building lowered into ground</span>\n<br><a href=\"thumbs/narvik-bunkers_TJT.jpg\" target=\"_blank\"><img width=\"100%\" src=\"thumbs/narvik-bunkers_TJT.jpg\"/></a>\n<br>68.52567,17.00524</div>", "iconImage": "circle-red"}, "geometry": {"type": "Point", "coordinates": [17.00524, 68.52567]}}, {"type": "Feature", "properties": {"name": "NZX", "description": "<div style=\"width:100%;\">NZX: <b>Bunker</b>\n<br><span style=\"font-family: monospace\">bunker</span>\n<br><a href=\"thumbs/narvik-bunkers_NZX.jpg\" target=\"_blank\"><img width=\"100%\" src=\"thumbs/narvik-bunkers_NZX.jpg\"/></a>\n<br>68.46666,17.47262</div>", "iconImage": "circle-red"}, "geometry": {"type": "Point", "coordinates": [17.47262, 68.46666]}}, {"type": "Feature", "properties": {"name": "CYN", "description": "<div style=\"width:100%;\">CYN: <b>Bunker</b>\n<br><span style=\"font-family: monospace\">Regelbau-style bunker entrance</span>\n<br><a href=\"thumbs/narvik-bunkers_CYN.jpg\" target=\"_blank\"><img width=\"100%\" src=\"thumbs/narvik-bunkers_CYN.jpg\"/></a>\n<br>68.43094,17.42746</div>", "iconImage": "circle-red"}, "geometry": {"type": "Point", "coordinates": [17.42746, 68.43094]}}, {"type": "Feature", "properties": {"name": "QDH", "description": "<div style=\"width:100%;\">QDH: <b>Building</b>\n<br><span style=\"font-family: monospace\">low foundations of building</span>\n<br><a href=\"thumbs/narvik-bunkers_QDH.jpg\" target=\"_blank\"><img width=\"100%\" src=\"thumbs/narvik-bunkers_QDH.jpg\"/></a>\n<br>68.43831,17.64664</div>", "iconImage": "circle-red"}, "geometry": {"type": "Point", "coordinates": [17.64664, 68.43831]}}, {"type": "Feature", "properties": {"name": "YBW", "description": "<div style=\"width:100%;\">YBW: <b>Battle Station</b>\n<br><span style=\"font-family: monospace\">walled battle station</span>\n<br><a href=\"thumbs/narvik-bunkers_YBW.jpg\" target=\"_blank\"><img width=\"100%\" src=\"thumbs/narvik-bunkers_YBW.jpg\"/></a>\n<br>68.43877,17.40146</div>", "iconImage": "circle-red"}, "geometry": {"type": "Point", "coordinates": [17.40146, 68.43877]}}, {"type": "Feature", "properties": {"name": "HYL", "description": "<div style=\"width:100%;\">HYL: <b>Bunker</b>\n<br><span style=\"font-family: monospace\">bunker with straight entrance; \"other\" door type</span>\n<br><a href=\"thumbs/narvik-bunkers_HYL.jpg\" target=\"_blank\"><img width=\"100%\" src=\"thumbs/narvik-bunkers_HYL.jpg\"/></a>\n<br>68.37115,17.25027</div>", "iconImage": "circle-red"}, "geometry": {"type": "Point", "coordinates": [17.25027, 68.37115]}}, {"type": "Feature", "properties": {"name": "WNC", "description": "<div style=\"width:100%;\">WNC: <b>Building</b>\n<br><span style=\"font-family: monospace\">building walls; building lowered into ground</span>\n<br><a href=\"thumbs/narvik-bunkers_WNC.jpg\" target=\"_blank\"><img width=\"100%\" src=\"thumbs/narvik-bunkers_WNC.jpg\"/></a>\n<br>68.436,17.39433</div>", "iconImage": "circle-red"}, "geometry": {"type": "Point", "coordinates": [17.39433, 68.436]}}, {"type": "Feature", "properties": {"name": "DTD", "description": "<div style=\"width:100%;\">DTD: <b>Tunnel</b>\n<br><span style=\"font-family: monospace\">tunnel with door; narrow tunnel entrance; \"other\" door type</span>\n<br><a href=\"thumbs/narvik-bunkers_DTD.jpg\" target=\"_blank\"><img width=\"100%\" src=\"thumbs/narvik-bunkers_DTD.jpg\"/></a>\n<br>68.43371,17.41893</div>", "iconImage": "rect-red"}, "geometry": {"type": "Point", "coordinates": [17.41893, 68.43371]}}, {"type": "Feature", "properties": {"name": "MMD", "description": "<div style=\"width:100%;\">MMD: <b>Battle Station</b>\n<br><span style=\"font-family: monospace\">high-walled battle station</span>\n<br><a href=\"thumbs/narvik-bunkers_MMD.jpg\" target=\"_blank\"><img width=\"100%\" src=\"thumbs/narvik-bunkers_MMD.jpg\"/></a>\n<br>68.47043,17.48306</div>", "iconImage": "circle-red"}, "geometry": {"type": "Point", "coordinates": [17.48306, 68.47043]}}, {"type": "Feature", "properties": {"name": "WVK", "description": "<div style=\"width:100%;\">WVK: <b>Foundation</b>\n<br><span style=\"font-family: monospace\">flat foundation</span>\n<br><a href=\"thumbs/narvik-bunkers_WVK.jpg\" target=\"_blank\"><img width=\"100%\" src=\"thumbs/narvik-bunkers_WVK.jpg\"/></a>\n<br>68.42484,17.4308</div>", "iconImage": "circle-red"}, "geometry": {"type": "Point", "coordinates": [17.4308, 68.42484]}}, {"type": "Feature", "properties": {"name": "PTG", "description": "<div style=\"width:100%;\">PTG: <b>Battle Station</b>\n<br><span style=\"font-family: monospace\">battle station at end of a trench</span>\n<br><a href=\"thumbs/narvik-bunkers_PTG.jpg\" target=\"_blank\"><img width=\"100%\" src=\"thumbs/narvik-bunkers_PTG.jpg\"/></a>\n<br>68.41781,17.30778</div>", "iconImage": "circle-red"}, "geometry": {"type": "Point", "coordinates": [17.30778, 68.41781]}}, {"type": "Feature", "properties": {"name": "CDW", "description": "<div style=\"width:100%;\">CDW: <b>Bunker</b>\n<br><span style=\"font-family: monospace\">ammunition bunker/shelter; walled battle station</span>\n<br><a href=\"thumbs/narvik-bunkers_CDW.jpg\" target=\"_blank\"><img width=\"100%\" src=\"thumbs/narvik-bunkers_CDW.jpg\"/></a>\n<br>68.43317,17.39154</div>", "iconImage": "circle-red"}, "geometry": {"type": "Point", "coordinates": [17.39154, 68.43317]}}, {"type": "Feature", "properties": {"name": "YBL", "description": "<div style=\"width:100%;\">YBL: <b>Bunker</b>\n<br><span style=\"font-family: monospace\">bunker with straight entrance; embrasure</span>\n<br><a href=\"thumbs/narvik-bunkers_YBL.jpg\" target=\"_blank\"><img width=\"100%\" src=\"thumbs/narvik-bunkers_YBL.jpg\"/></a>\n<br>68.49889,17.07701</div>", "iconImage": "circle-red"}, "geometry": {"type": "Point", "coordinates": [17.07701, 68.49889]}}, {"type": "Feature", "properties": {"name": "LRY", "description": "<div style=\"width:100%;\">LRY: <b>Battle Station</b>\n<br><span style=\"font-family: monospace\">low-walled battle station</span>\n<br><a href=\"thumbs/narvik-bunkers_LRY.jpg\" target=\"_blank\"><img width=\"100%\" src=\"thumbs/narvik-bunkers_LRY.jpg\"/></a>\n<br>68.43099,17.42395</div>", "iconImage": "circle-red"}, "geometry": {"type": "Point", "coordinates": [17.42395, 68.43099]}}, {"type": "Feature", "properties": {"name": "CPM", "description": "<div style=\"width:100%;\">CPM: <b>Bunker</b>\n<br><span style=\"font-family: monospace\">bunker with straight entrance</span>\n<br><a href=\"thumbs/narvik-bunkers_CPM.jpg\" target=\"_blank\"><img width=\"100%\" src=\"thumbs/narvik-bunkers_CPM.jpg\"/></a>\n<br>68.43304,17.43673</div>", "iconImage": "circle-red"}, "geometry": {"type": "Point", "coordinates": [17.43673, 68.43304]}}, {"type": "Feature", "properties": {"name": "KJS", "description": "<div style=\"width:100%;\">KJS: <b>Tunnel</b>\n<br><span style=\"font-family: monospace\">open tunnel, no masonry; narrow tunnel entrance; trench</span>\n<br><a href=\"thumbs/narvik-bunkers_KJS.jpg\" target=\"_blank\"><img width=\"100%\" src=\"thumbs/narvik-bunkers_KJS.jpg\"/></a>\n<br>68.41926,17.31256</div>", "iconImage": "rect-red"}, "geometry": {"type": "Point", "coordinates": [17.31256, 68.41926]}}, {"type": "Feature", "properties": {"name": "YZQ", "description": "<div style=\"width:100%;\">YZQ: <b>Building</b>\n<br><span style=\"font-family: monospace\">building lowered into ground</span>\n<br><a href=\"thumbs/narvik-bunkers_YZQ.jpg\" target=\"_blank\"><img width=\"100%\" src=\"thumbs/narvik-bunkers_YZQ.jpg\"/></a>\n<br>68.44055,17.39408</div>", "iconImage": "u-red"}, "geometry": {"type": "Point", "coordinates": [17.39408, 68.44055]}}, {"type": "Feature", "properties": {"name": "XMT", "description": "<div style=\"width:100%;\">XMT: <b>Building</b>\n<br><span style=\"font-family: monospace\">low foundations of building; building lowered into ground</span>\n<br><a href=\"thumbs/narvik-bunkers_XMT.jpg\" target=\"_blank\"><img width=\"100%\" src=\"thumbs/narvik-bunkers_XMT.jpg\"/></a>\n<br>68.37207,17.42211</div>", "iconImage": "circle-red"}, "geometry": {"type": "Point", "coordinates": [17.42211, 68.37207]}}, {"type": "Feature", "properties": {"name": "MBZ", "description": "<div style=\"width:100%;\">MBZ: <b>Bunker</b>\n<br><span style=\"font-family: monospace\">bunker</span>\n<br><a href=\"thumbs/narvik-bunkers_MBZ.jpg\" target=\"_blank\"><img width=\"100%\" src=\"thumbs/narvik-bunkers_MBZ.jpg\"/></a>\n<br>68.44273,17.39902</div>", "iconImage": "circle-red"}, "geometry": {"type": "Point", "coordinates": [17.39902, 68.44273]}}, {"type": "Feature", "properties": {"name": "ZWQ", "description": "<div style=\"width:100%;\">ZWQ: <b>Platform</b>\n<br><span style=\"font-family: monospace\">small concrete platform/pedestal</span>\n<br><a href=\"thumbs/narvik-bunkers_ZWQ.jpg\" target=\"_blank\"><img width=\"100%\" src=\"thumbs/narvik-bunkers_ZWQ.jpg\"/></a>\n<br>68.45208,17.47553</div>", "iconImage": "circle-red"}, "geometry": {"type": "Point", "coordinates": [17.47553, 68.45208]}}, {"type": "Feature", "properties": {"name": "BRD", "description": "<div style=\"width:100%;\">BRD: <b>Bunker</b>\n<br><span style=\"font-family: monospace\">bunker with blast protection</span>\n<br><a href=\"thumbs/narvik-bunkers_BRD.jpg\" target=\"_blank\"><img width=\"100%\" src=\"thumbs/narvik-bunkers_BRD.jpg\"/></a>\n<br>68.42047,16.63907</div>", "iconImage": "circle-red"}, "geometry": {"type": "Point", "coordinates": [16.63907, 68.42047]}}, {"type": "Feature", "properties": {"name": "CYY", "description": "<div style=\"width:100%;\">CYY: <b>Bunker</b>\n<br><span style=\"font-family: monospace\">ammunition bunker/shelter; walled battle station</span>\n<br><a href=\"thumbs/narvik-bunkers_CYY.jpg\" target=\"_blank\"><img width=\"100%\" src=\"thumbs/narvik-bunkers_CYY.jpg\"/></a>\n<br>68.43341,17.39152</div>", "iconImage": "circle-red"}, "geometry": {"type": "Point", "coordinates": [17.39152, 68.43341]}}, {"type": "Feature", "properties": {"name": "NZM", "description": "<div style=\"width:100%;\">NZM: <b>Battle Station</b>\n<br><span style=\"font-family: monospace\">battle station at end of a trench</span>\n<br><a href=\"thumbs/narvik-bunkers_NZM.jpg\" target=\"_blank\"><img width=\"100%\" src=\"thumbs/narvik-bunkers_NZM.jpg\"/></a>\n<br>68.44571,17.51686</div>", "iconImage": "circle-red"}, "geometry": {"type": "Point", "coordinates": [17.51686, 68.44571]}}, {"type": "Feature", "properties": {"name": "YJJ", "description": "<div style=\"width:100%;\">YJJ: <b>Unidentified</b>\n<br><span style=\"font-family: monospace\">unidentified</span>\n<br><a href=\"thumbs/narvik-bunkers_YJJ.jpg\" target=\"_blank\"><img width=\"100%\" src=\"thumbs/narvik-bunkers_YJJ.jpg\"/></a>\n<br>68.45048,17.52756</div>", "iconImage": "circle-red"}, "geometry": {"type": "Point", "coordinates": [17.52756, 68.45048]}}, {"type": "Feature", "properties": {"name": "NWJ", "description": "<div style=\"width:100%;\">NWJ: <b>Tunnel</b>\n<br><span style=\"font-family: monospace\">tunnel with door; narrow tunnel entrance; \"other\" door type</span>\n<br><a href=\"thumbs/narvik-bunkers_NWJ.jpg\" target=\"_blank\"><img width=\"100%\" src=\"thumbs/narvik-bunkers_NWJ.jpg\"/></a>\n<br>68.43412,17.41923</div>", "iconImage": "rect-red"}, "geometry": {"type": "Point", "coordinates": [17.41923, 68.43412]}}, {"type": "Feature", "properties": {"name": "MYM", "description": "<div style=\"width:100%;\">MYM: <b>Pit</b>\n<br><span style=\"font-family: monospace\">pit</span>\n<br><a href=\"thumbs/narvik-bunkers_MYM.jpg\" target=\"_blank\"><img width=\"100%\" src=\"thumbs/narvik-bunkers_MYM.jpg\"/></a>\n<br>68.43991,17.39275</div>", "iconImage": "u-red"}, "geometry": {"type": "Point", "coordinates": [17.39275, 68.43991]}}, {"type": "Feature", "properties": {"name": "CWJ", "description": "<div style=\"width:100%;\">CWJ: <b>Battle Station</b>\n<br><span style=\"font-family: monospace\">high-walled battle station; ammunition bunker/shelter</span>\n<br><a href=\"thumbs/narvik-bunkers_CWJ.jpg\" target=\"_blank\"><img width=\"100%\" src=\"thumbs/narvik-bunkers_CWJ.jpg\"/></a>\n<br>68.45714,17.01894</div>", "iconImage": "circle-red"}, "geometry": {"type": "Point", "coordinates": [17.01894, 68.45714]}}, {"type": "Feature", "properties": {"name": "JYP", "description": "<div style=\"width:100%;\">JYP: <b>Platform</b>\n<br><span style=\"font-family: monospace\">small concrete platform/pedestal</span>\n<br><a href=\"thumbs/narvik-bunkers_JYP.jpg\" target=\"_blank\"><img width=\"100%\" src=\"thumbs/narvik-bunkers_JYP.jpg\"/></a>\n<br>68.44232,17.43697</div>", "iconImage": "circle-red"}, "geometry": {"type": "Point", "coordinates": [17.43697, 68.44232]}}, {"type": "Feature", "properties": {"name": "CCP", "description": "<div style=\"width:100%;\">CCP: <b>Foundation</b>\n<br><span style=\"font-family: monospace\">rock leveled</span>\n<br><a href=\"thumbs/narvik-bunkers_CCP.jpg\" target=\"_blank\"><img width=\"100%\" src=\"thumbs/narvik-bunkers_CCP.jpg\"/></a>\n<br>68.41027,17.43208</div>", "iconImage": "u-red"}, "geometry": {"type": "Point", "coordinates": [17.43208, 68.41027]}}, {"type": "Feature", "properties": {"name": "ZLR", "description": "<div style=\"width:100%;\">ZLR: <b>Bunker</b>\n<br><span style=\"font-family: monospace\">bunker with locked entrance</span>\n<br><a href=\"thumbs/narvik-bunkers_ZLR.jpg\" target=\"_blank\"><img width=\"100%\" src=\"thumbs/narvik-bunkers_ZLR.jpg\"/></a>\n<br>68.43648,17.40499</div>", "iconImage": "circle-red"}, "geometry": {"type": "Point", "coordinates": [17.40499, 68.43648]}}, {"type": "Feature", "properties": {"name": "MTL", "description": "<div style=\"width:100%;\">MTL: <b>Tunnel</b>\n<br><span style=\"font-family: monospace\">tunnel with door; narrow tunnel entrance; \"other\" door type</span>\n<br><a href=\"thumbs/narvik-bunkers_MTL.jpg\" target=\"_blank\"><img width=\"100%\" src=\"thumbs/narvik-bunkers_MTL.jpg\"/></a>\n<br>68.43074,17.42405</div>", "iconImage": "rect-red"}, "geometry": {"type": "Point", "coordinates": [17.42405, 68.43074]}}, {"type": "Feature", "properties": {"name": "WDW", "description": "<div style=\"width:100%;\">WDW: <b>Building</b>\n<br><span style=\"font-family: monospace\">low foundations of building</span>\n<br><a href=\"thumbs/narvik-bunkers_WDW.jpg\" target=\"_blank\"><img width=\"100%\" src=\"thumbs/narvik-bunkers_WDW.jpg\"/></a>\n<br>68.45771,17.01971</div>", "iconImage": "circle-red"}, "geometry": {"type": "Point", "coordinates": [17.01971, 68.45771]}}, {"type": "Feature", "properties": {"name": "WRG", "description": "<div style=\"width:100%;\">WRG: <b>Tunnel</b>\n<br><span style=\"font-family: monospace\">open tunnel, masonry; narrow tunnel entrance; bunker with straight entrance; embrasure; lookout</span>\n<br><a href=\"thumbs/narvik-bunkers_WRG.jpg\" target=\"_blank\"><img width=\"100%\" src=\"thumbs/narvik-bunkers_WRG.jpg\"/></a>\n<br>68.37499,17.25345</div>", "iconImage": "rect-red"}, "geometry": {"type": "Point", "coordinates": [17.25345, 68.37499]}}, {"type": "Feature", "properties": {"name": "ZMP", "description": "<div style=\"width:100%;\">ZMP: <b>Natural Feature</b>\n<br><span style=\"font-family: monospace\">natural shelter</span>\n<br><a href=\"thumbs/narvik-bunkers_ZMP.jpg\" target=\"_blank\"><img width=\"100%\" src=\"thumbs/narvik-bunkers_ZMP.jpg\"/></a>\n<br>68.42552,17.43045</div>", "iconImage": "circle-red"}, "geometry": {"type": "Point", "coordinates": [17.43045, 68.42552]}}, {"type": "Feature", "properties": {"name": "JTB", "description": "<div style=\"width:100%;\">JTB: <b>Tunnel</b>\n<br>Bolagstunnelen\n<br><span style=\"font-family: monospace\">tunnel with door; narrow tunnel entrance; \"other\" door type</span>\n<br><a href=\"thumbs/narvik-bunkers_JTB.jpg\" target=\"_blank\"><img width=\"100%\" src=\"thumbs/narvik-bunkers_JTB.jpg\"/></a>\n<br>68.43492,17.41469</div>", "iconImage": "rect-red"}, "geometry": {"type": "Point", "coordinates": [17.41469, 68.43492]}}, {"type": "Feature", "properties": {"name": "GWN", "description": "<div style=\"width:100%;\">GWN: <b>Tunnel</b>\n<br><span style=\"font-family: monospace\">tunnel with door; wide tunnel entrace; \"other\" door type</span>\n<br><a href=\"thumbs/narvik-bunkers_GWN.jpg\" target=\"_blank\"><img width=\"100%\" src=\"thumbs/narvik-bunkers_GWN.jpg\"/></a>\n<br>68.43792,17.43</div>", "iconImage": "rect-red"}, "geometry": {"type": "Point", "coordinates": [17.43, 68.43792]}}, {"type": "Feature", "properties": {"name": "TCH", "description": "<div style=\"width:100%;\">TCH: <b>Battle Station</b>\n<br><span style=\"font-family: monospace\">high-walled battle station; bunker with straight entrance</span>\n<br><a href=\"thumbs/narvik-bunkers_TCH.jpg\" target=\"_blank\"><img width=\"100%\" src=\"thumbs/narvik-bunkers_TCH.jpg\"/></a>\n<br>68.47038,17.4839</div>", "iconImage": "circle-red"}, "geometry": {"type": "Point", "coordinates": [17.4839, 68.47038]}}, {"type": "Feature", "properties": {"name": "KZC", "description": "<div style=\"width:100%;\">KZC: <b>Building</b>\n<br><span style=\"font-family: monospace\">building lowered into ground</span>\n<br><a href=\"thumbs/narvik-bunkers_KZC.jpg\" target=\"_blank\"><img width=\"100%\" src=\"thumbs/narvik-bunkers_KZC.jpg\"/></a>\n<br>68.44279,17.52334</div>", "iconImage": "u-red"}, "geometry": {"type": "Point", "coordinates": [17.52334, 68.44279]}}, {"type": "Feature", "properties": {"name": "NTP", "description": "<div style=\"width:100%;\">NTP: <b>Battle Station</b>\n<br><span style=\"font-family: monospace\">high-walled battle station; ammunition bunker/shelter</span>\n<br><a href=\"thumbs/narvik-bunkers_NTP.jpg\" target=\"_blank\"><img width=\"100%\" src=\"thumbs/narvik-bunkers_NTP.jpg\"/></a>\n<br>68.49835,17.07594</div>", "iconImage": "circle-red"}, "geometry": {"type": "Point", "coordinates": [17.07594, 68.49835]}}, {"type": "Feature", "properties": {"name": "TNJ", "description": "<div style=\"width:100%;\">TNJ: <b>Building</b>\n<br><span style=\"font-family: monospace\">building lowered into ground</span>\n<br><a href=\"thumbs/narvik-bunkers_TNJ.jpg\" target=\"_blank\"><img width=\"100%\" src=\"thumbs/narvik-bunkers_TNJ.jpg\"/></a>\n<br>68.4199,17.31</div>", "iconImage": "u-red"}, "geometry": {"type": "Point", "coordinates": [17.31, 68.4199]}}, {"type": "Feature", "properties": {"name": "KHK", "description": "<div style=\"width:100%;\">KHK: <b>Building</b>\n<br><span style=\"font-family: monospace\">low foundations of building</span>\n<br><a href=\"thumbs/narvik-bunkers_KHK.jpg\" target=\"_blank\"><img width=\"100%\" src=\"thumbs/narvik-bunkers_KHK.jpg\"/></a>\n<br>68.43826,17.64697</div>", "iconImage": "circle-red"}, "geometry": {"type": "Point", "coordinates": [17.64697, 68.43826]}}, {"type": "Feature", "properties": {"name": "XNG", "description": "<div style=\"width:100%;\">XNG: <b>Tunnel</b>\n<br><span style=\"font-family: monospace\">open tunnel, no masonry</span>\n<br><a href=\"thumbs/narvik-bunkers_XNG.jpg\" target=\"_blank\"><img width=\"100%\" src=\"thumbs/narvik-bunkers_XNG.jpg\"/></a>\n<br>68.41352,17.42918</div>", "iconImage": "rect-red"}, "geometry": {"type": "Point", "coordinates": [17.42918, 68.41352]}}, {"type": "Feature", "properties": {"name": "JJZ", "description": "<div style=\"width:100%;\">JJZ: <b>Bunker</b>\n<br><span style=\"font-family: monospace\">bunker; damaged</span>\n<br><a href=\"thumbs/narvik-bunkers_JJZ.jpg\" target=\"_blank\"><img width=\"100%\" src=\"thumbs/narvik-bunkers_JJZ.jpg\"/></a>\n<br>68.39435,17.25046</div>", "iconImage": "circle-red"}, "geometry": {"type": "Point", "coordinates": [17.25046, 68.39435]}}, {"type": "Feature", "properties": {"name": "CHG", "description": "<div style=\"width:100%;\">CHG: <b>Pit</b>\n<br><span style=\"font-family: monospace\">pit</span>\n<br><a href=\"thumbs/narvik-bunkers_CHG.jpg\" target=\"_blank\"><img width=\"100%\" src=\"thumbs/narvik-bunkers_CHG.jpg\"/></a>\n<br>68.4329,17.38925</div>", "iconImage": "u-red"}, "geometry": {"type": "Point", "coordinates": [17.38925, 68.4329]}}, {"type": "Feature", "properties": {"name": "PZP", "description": "<div style=\"width:100%;\">PZP: <b>Tunnel</b>\n<br><span style=\"font-family: monospace\">tunnel with door; wide tunnel entrace; \"other\" door type</span>\n<br><a href=\"thumbs/narvik-bunkers_PZP.jpg\" target=\"_blank\"><img width=\"100%\" src=\"thumbs/narvik-bunkers_PZP.jpg\"/></a>\n<br>68.4429,17.41654</div>", "iconImage": "rect-red"}, "geometry": {"type": "Point", "coordinates": [17.41654, 68.4429]}}, {"type": "Feature", "properties": {"name": "GJV", "description": "<div style=\"width:100%;\">GJV: <b>Unidentified</b>\n<br><span style=\"font-family: monospace\">unidentified; damaged</span>\n<br><a href=\"thumbs/narvik-bunkers_GJV.jpg\" target=\"_blank\"><img width=\"100%\" src=\"thumbs/narvik-bunkers_GJV.jpg\"/></a>\n<br>68.4214,17.34731</div>", "iconImage": "circle-red"}, "geometry": {"type": "Point", "coordinates": [17.34731, 68.4214]}}, {"type": "Feature", "properties": {"name": "LTT", "description": "<div style=\"width:100%;\">LTT: <b>Building</b>\n<br><span style=\"font-family: monospace\">low foundations of building</span>\n<br><a href=\"thumbs/narvik-bunkers_LTT.jpg\" target=\"_blank\"><img width=\"100%\" src=\"thumbs/narvik-bunkers_LTT.jpg\"/></a>\n<br>68.47101,17.48492</div>", "iconImage": "circle-red"}, "geometry": {"type": "Point", "coordinates": [17.48492, 68.47101]}}, {"type": "Feature", "properties": {"name": "BDT", "description": "<div style=\"width:100%;\">BDT: <b>Battle Station</b>\n<br><span style=\"font-family: monospace\">high-walled battle station</span>\n<br><a href=\"thumbs/narvik-bunkers_BDT.jpg\" target=\"_blank\"><img width=\"100%\" src=\"thumbs/narvik-bunkers_BDT.jpg\"/></a>\n<br>68.41881,17.31427</div>", "iconImage": "circle-red"}, "geometry": {"type": "Point", "coordinates": [17.31427, 68.41881]}}, {"type": "Feature", "properties": {"name": "VNW", "description": "<div style=\"width:100%;\">VNW: <b>Bunker</b>\n<br><span style=\"font-family: monospace\">bunker with locked entrance</span>\n<br><a href=\"thumbs/narvik-bunkers_VNW.jpg\" target=\"_blank\"><img width=\"100%\" src=\"thumbs/narvik-bunkers_VNW.jpg\"/></a>\n<br>68.45359,16.70952</div>", "iconImage": "circle-red"}, "geometry": {"type": "Point", "coordinates": [16.70952, 68.45359]}}, {"type": "Feature", "properties": {"name": "DNS", "description": "<div style=\"width:100%;\">DNS: <b>Bunker</b>\n<br><span style=\"font-family: monospace\">bunker with straight entrance; trench</span>\n<br><a href=\"thumbs/narvik-bunkers_DNS.jpg\" target=\"_blank\"><img width=\"100%\" src=\"thumbs/narvik-bunkers_DNS.jpg\"/></a>\n<br>68.45236,17.47614</div>", "iconImage": "circle-red"}, "geometry": {"type": "Point", "coordinates": [17.47614, 68.45236]}}, {"type": "Feature", "properties": {"name": "HTW", "description": "<div style=\"width:100%;\">HTW: <b>Bridge</b>\n<br><span style=\"font-family: monospace\">bridge</span>\n<br><a href=\"thumbs/narvik-bunkers_HTW.jpg\" target=\"_blank\"><img width=\"100%\" src=\"thumbs/narvik-bunkers_HTW.jpg\"/></a>\n<br>68.45133,17.50201</div>", "iconImage": "circle-red"}, "geometry": {"type": "Point", "coordinates": [17.50201, 68.45133]}}, {"type": "Feature", "properties": {"name": "YYS", "description": "<div style=\"width:100%;\">YYS: <b>Tunnel</b>\n<br><span style=\"font-family: monospace\">open tunnel, no masonry</span>\n<br><a href=\"thumbs/narvik-bunkers_YYS.jpg\" target=\"_blank\"><img width=\"100%\" src=\"thumbs/narvik-bunkers_YYS.jpg\"/></a>\n<br>68.37513,17.2532</div>", "iconImage": "rect-red"}, "geometry": {"type": "Point", "coordinates": [17.2532, 68.37513]}}, {"type": "Feature", "properties": {"name": "ZRZ", "description": "<div style=\"width:100%;\">ZRZ: <b>Tunnel</b>\n<br><span style=\"font-family: monospace\">tunnel with door; narrow tunnel entrance; Panzertür 434P01 (1.7 m, 30 mm)</span>\n<br><a href=\"thumbs/narvik-bunkers_ZRZ.jpg\" target=\"_blank\"><img width=\"100%\" src=\"thumbs/narvik-bunkers_ZRZ.jpg\"/></a>\n<br>68.44239,17.41551</div>", "iconImage": "rect-red"}, "geometry": {"type": "Point", "coordinates": [17.41551, 68.44239]}}, {"type": "Feature", "properties": {"name": "SCD", "description": "<div style=\"width:100%;\">SCD: <b>Battle Station</b>\n<br><span style=\"font-family: monospace\">low-walled battle station; bunker with straight entrance</span>\n<br><a href=\"thumbs/narvik-bunkers_SCD.jpg\" target=\"_blank\"><img width=\"100%\" src=\"thumbs/narvik-bunkers_SCD.jpg\"/></a>\n<br>68.43423,17.38954</div>", "iconImage": "circle-red"}, "geometry": {"type": "Point", "coordinates": [17.38954, 68.43423]}}, {"type": "Feature", "properties": {"name": "GXW", "description": "<div style=\"width:100%;\">GXW: <b>Tunnel</b>\n<br><span style=\"font-family: monospace\">tunnel with barricaded entrance; narrow tunnel entrance; \"other\" door type</span>\n<br><a href=\"thumbs/narvik-bunkers_GXW.jpg\" target=\"_blank\"><img width=\"100%\" src=\"thumbs/narvik-bunkers_GXW.jpg\"/></a>\n<br>68.44298,17.41085</div>", "iconImage": "rect-red"}, "geometry": {"type": "Point", "coordinates": [17.41085, 68.44298]}}, {"type": "Feature", "properties": {"name": "JHH", "description": "<div style=\"width:100%;\">JHH: <b>Battle Station</b>\n<br><span style=\"font-family: monospace\">low-walled battle station</span>\n<br><a href=\"thumbs/narvik-bunkers_JHH.jpg\" target=\"_blank\"><img width=\"100%\" src=\"thumbs/narvik-bunkers_JHH.jpg\"/></a>\n<br>68.52574,17.00453</div>", "iconImage": "circle-red"}, "geometry": {"type": "Point", "coordinates": [17.00453, 68.52574]}}, {"type": "Feature", "properties": {"name": "QWP", "description": "<div style=\"width:100%;\">QWP: <b>Bunker</b>\n<br><span style=\"font-family: monospace\">bunker with locked entrance; Luftfiltering A/S \"NATO\" door</span>\n<br><a href=\"thumbs/narvik-bunkers_QWP.jpg\" target=\"_blank\"><img width=\"100%\" src=\"thumbs/narvik-bunkers_QWP.jpg\"/></a>\n<br>68.44084,17.39843</div>", "iconImage": "circle-red"}, "geometry": {"type": "Point", "coordinates": [17.39843, 68.44084]}}, {"type": "Feature", "properties": {"name": "GHM", "description": "<div style=\"width:100%;\">GHM: <b>Battle Station</b>\n<br><span style=\"font-family: monospace\">battle station at end of a trench</span>\n<br><a href=\"thumbs/narvik-bunkers_GHM.jpg\" target=\"_blank\"><img width=\"100%\" src=\"thumbs/narvik-bunkers_GHM.jpg\"/></a>\n<br>68.43505,17.53594</div>", "iconImage": "circle-red"}, "geometry": {"type": "Point", "coordinates": [17.53594, 68.43505]}}, {"type": "Feature", "properties": {"name": "HCM", "description": "<div style=\"width:100%;\">HCM: <b>Bunker</b>\n<br><span style=\"font-family: monospace\">bunker with straight entrance</span>\n<br><a href=\"thumbs/narvik-bunkers_HCM.jpg\" target=\"_blank\"><img width=\"100%\" src=\"thumbs/narvik-bunkers_HCM.jpg\"/></a>\n<br>68.4981,17.0774</div>", "iconImage": "circle-red"}, "geometry": {"type": "Point", "coordinates": [17.0774, 68.4981]}}, {"type": "Feature", "properties": {"name": "JCZ", "description": "<div style=\"width:100%;\">JCZ: <b>Battle Station</b>\n<br><span style=\"font-family: monospace\">battle station at end of a trench</span>\n<br><a href=\"thumbs/narvik-bunkers_JCZ.jpg\" target=\"_blank\"><img width=\"100%\" src=\"thumbs/narvik-bunkers_JCZ.jpg\"/></a>\n<br>68.42573,17.43014</div>", "iconImage": "circle-red"}, "geometry": {"type": "Point", "coordinates": [17.43014, 68.42573]}}, {"type": "Feature", "properties": {"name": "SPC", "description": "<div style=\"width:100%;\">SPC: <b>Building</b>\n<br><span style=\"font-family: monospace\">bunker-style building; building lowered into ground</span>\n<br><a href=\"thumbs/narvik-bunkers_SPC.jpg\" target=\"_blank\"><img width=\"100%\" src=\"thumbs/narvik-bunkers_SPC.jpg\"/></a>\n<br>68.45842,17.02283</div>", "iconImage": "circle-red"}, "geometry": {"type": "Point", "coordinates": [17.02283, 68.45842]}}, {"type": "Feature", "properties": {"name": "DZP", "description": "<div style=\"width:100%;\">DZP: <b>Foundation</b>\n<br><span style=\"font-family: monospace\">rock leveled</span>\n<br><a href=\"thumbs/narvik-bunkers_DZP.jpg\" target=\"_blank\"><img width=\"100%\" src=\"thumbs/narvik-bunkers_DZP.jpg\"/></a>\n<br>68.44221,17.40997</div>", "iconImage": "u-red"}, "geometry": {"type": "Point", "coordinates": [17.40997, 68.44221]}}, {"type": "Feature", "properties": {"name": "SSG", "description": "<div style=\"width:100%;\">SSG: <b>Tunnel</b>\n<br><span style=\"font-family: monospace\">open tunnel, masonry; narrow tunnel entrance; damaged</span>\n<br><a href=\"thumbs/narvik-bunkers_SSG.jpg\" target=\"_blank\"><img width=\"100%\" src=\"thumbs/narvik-bunkers_SSG.jpg\"/></a>\n<br>68.43093,17.42234</div>", "iconImage": "rect-red"}, "geometry": {"type": "Point", "coordinates": [17.42234, 68.43093]}}, {"type": "Feature", "properties": {"name": "LHM", "description": "<div style=\"width:100%;\">LHM: <b>Bunker</b>\n<br><span style=\"font-family: monospace\">bunker</span>\n<br><a href=\"thumbs/narvik-bunkers_LHM.jpg\" target=\"_blank\"><img width=\"100%\" src=\"thumbs/narvik-bunkers_LHM.jpg\"/></a>\n<br>68.44315,17.40121</div>", "iconImage": "circle-red"}, "geometry": {"type": "Point", "coordinates": [17.40121, 68.44315]}}, {"type": "Feature", "properties": {"name": "HHZ", "description": "<div style=\"width:100%;\">HHZ: <b>Battle Station</b>\n<br><span style=\"font-family: monospace\">battle platform</span>\n<br><a href=\"thumbs/narvik-bunkers_HHZ.jpg\" target=\"_blank\"><img width=\"100%\" src=\"thumbs/narvik-bunkers_HHZ.jpg\"/></a>\n<br>68.45365,16.71023</div>", "iconImage": "circle-red"}, "geometry": {"type": "Point", "coordinates": [16.71023, 68.45365]}}, {"type": "Feature", "properties": {"name": "CJZ", "description": "<div style=\"width:100%;\">CJZ: <b>Tunnel</b>\n<br><span style=\"font-family: monospace\">open tunnel, no masonry; narrow tunnel entrance; removed</span>\n<br><a href=\"thumbs/narvik-bunkers_CJZ.jpg\" target=\"_blank\"><img width=\"100%\" src=\"thumbs/narvik-bunkers_CJZ.jpg\"/></a>\n<br>68.4457,17.51595</div>", "iconImage": "cross-red"}, "geometry": {"type": "Point", "coordinates": [17.51595, 68.4457]}}, {"type": "Feature", "properties": {"name": "GKH", "description": "<div style=\"width:100%;\">GKH: <b>Pit</b>\n<br><span style=\"font-family: monospace\">pit</span>\n<br><a href=\"thumbs/narvik-bunkers_GKH.jpg\" target=\"_blank\"><img width=\"100%\" src=\"thumbs/narvik-bunkers_GKH.jpg\"/></a>\n<br>68.44267,17.39667</div>", "iconImage": "u-red"}, "geometry": {"type": "Point", "coordinates": [17.39667, 68.44267]}}, {"type": "Feature", "properties": {"name": "QZH", "description": "<div style=\"width:100%;\">QZH: <b>Battle Station</b>\n<br><span style=\"font-family: monospace\">embrasure; attached tunnel</span>\n<br><a href=\"thumbs/narvik-bunkers_QZH.jpg\" target=\"_blank\"><img width=\"100%\" src=\"thumbs/narvik-bunkers_QZH.jpg\"/></a>\n<br>68.42244,17.34455</div>", "iconImage": "circle-red"}, "geometry": {"type": "Point", "coordinates": [17.34455, 68.42244]}}, {"type": "Feature", "properties": {"name": "DNH", "description": "<div style=\"width:100%;\">DNH: <b>Foundation</b>\n<br><span style=\"font-family: monospace\">flat foundation; battle station</span>\n<br><a href=\"thumbs/narvik-bunkers_DNH.jpg\" target=\"_blank\"><img width=\"100%\" src=\"thumbs/narvik-bunkers_DNH.jpg\"/></a>\n<br>68.41855,17.4354</div>", "iconImage": "circle-red"}, "geometry": {"type": "Point", "coordinates": [17.4354, 68.41855]}}, {"type": "Feature", "properties": {"name": "KXT", "description": "<div style=\"width:100%;\">KXT: <b>Dock</b>\n<br><span style=\"font-family: monospace\">dock</span>\n<br><a href=\"thumbs/narvik-bunkers_KXT.jpg\" target=\"_blank\"><img width=\"100%\" src=\"thumbs/narvik-bunkers_KXT.jpg\"/></a>\n<br>68.45181,17.46752</div>", "iconImage": "circle-red"}, "geometry": {"type": "Point", "coordinates": [17.46752, 68.45181]}}, {"type": "Feature", "properties": {"name": "VCV", "description": "<div style=\"width:100%;\">VCV: <b>Bunker</b>\n<br>Regelbau 634: \"Stand mit 6-Schartenturm\"\n<br><span style=\"font-family: monospace\">Regelbau-style bunker entrance</span>\n<br><a href=\"thumbs/narvik-bunkers_VCV.jpg\" target=\"_blank\"><img width=\"100%\" src=\"thumbs/narvik-bunkers_VCV.jpg\"/></a>\n<br>68.41015,17.43089</div>", "iconImage": "circle-red"}, "geometry": {"type": "Point", "coordinates": [17.43089, 68.41015]}}, {"type": "Feature", "properties": {"name": "KDZ", "description": "<div style=\"width:100%;\">KDZ: <b>Platform</b>\n<br><span style=\"font-family: monospace\">small concrete platform/pedestal</span>\n<br><a href=\"thumbs/narvik-bunkers_KDZ.jpg\" target=\"_blank\"><img width=\"100%\" src=\"thumbs/narvik-bunkers_KDZ.jpg\"/></a>\n<br>68.41757,17.43158</div>", "iconImage": "circle-red"}, "geometry": {"type": "Point", "coordinates": [17.43158, 68.41757]}}, {"type": "Feature", "properties": {"name": "WBQ", "description": "<div style=\"width:100%;\">WBQ: <b>Tunnel</b>\n<br><span style=\"font-family: monospace\">open tunnel, masonry; narrow tunnel entrance; ammunition bunker/shelter</span>\n<br><a href=\"thumbs/narvik-bunkers_WBQ.jpg\" target=\"_blank\"><img width=\"100%\" src=\"thumbs/narvik-bunkers_WBQ.jpg\"/></a>\n<br>68.46631,17.47739</div>", "iconImage": "rect-red"}, "geometry": {"type": "Point", "coordinates": [17.47739, 68.46631]}}, {"type": "Feature", "properties": {"name": "YDD", "description": "<div style=\"width:100%;\">YDD: <b>Tunnel</b>\n<br><span style=\"font-family: monospace\">tunnel with door; narrow tunnel entrance; removed</span>\n<br><a href=\"thumbs/narvik-bunkers_YDD.jpg\" target=\"_blank\"><img width=\"100%\" src=\"thumbs/narvik-bunkers_YDD.jpg\"/></a>\n<br>68.44327,17.43775</div>", "iconImage": "cross-red"}, "geometry": {"type": "Point", "coordinates": [17.43775, 68.44327]}}, {"type": "Feature", "properties": {"name": "VLR", "description": "<div style=\"width:100%;\">VLR: <b>Battle Station</b>\n<br><span style=\"font-family: monospace\">high-walled battle station; ammunition bunker/shelter; damaged</span>\n<br><a href=\"thumbs/narvik-bunkers_VLR.jpg\" target=\"_blank\"><img width=\"100%\" src=\"thumbs/narvik-bunkers_VLR.jpg\"/></a>\n<br>68.49814,17.07655</div>", "iconImage": "circle-red"}, "geometry": {"type": "Point", "coordinates": [17.07655, 68.49814]}}, {"type": "Feature", "properties": {"name": "BVH", "description": "<div style=\"width:100%;\">BVH: <b>Bunker</b>\n<br><span style=\"font-family: monospace\">bunker with straight entrance; 3-direction roofed lookout; trench</span>\n<br><a href=\"thumbs/narvik-bunkers_BVH.jpg\" target=\"_blank\"><img width=\"100%\" src=\"thumbs/narvik-bunkers_BVH.jpg\"/></a>\n<br>68.43239,17.38828</div>", "iconImage": "circle-red"}, "geometry": {"type": "Point", "coordinates": [17.38828, 68.43239]}}, {"type": "Feature", "properties": {"name": "VGD", "description": "<div style=\"width:100%;\">VGD: <b>Building</b>\n<br><span style=\"font-family: monospace\">building walls; building lowered into ground</span>\n<br><a href=\"thumbs/narvik-bunkers_VGD.jpg\" target=\"_blank\"><img width=\"100%\" src=\"thumbs/narvik-bunkers_VGD.jpg\"/></a>\n<br>68.43574,17.39619</div>", "iconImage": "circle-red"}, "geometry": {"type": "Point", "coordinates": [17.39619, 68.43574]}}, {"type": "Feature", "properties": {"name": "HRQ", "description": "<div style=\"width:100%;\">HRQ: <b>Tunnel</b>\n<br>Sewage maintenance tunnel\n<br><span style=\"font-family: monospace\">tunnel with door; narrow tunnel entrance; \"other\" door type</span>\n<br><a href=\"thumbs/narvik-bunkers_HRQ.jpg\" target=\"_blank\"><img width=\"100%\" src=\"thumbs/narvik-bunkers_HRQ.jpg\"/></a>\n<br>68.43696,17.43054</div>", "iconImage": "rect-red"}, "geometry": {"type": "Point", "coordinates": [17.43054, 68.43696]}}, {"type": "Feature", "properties": {"name": "QLQ", "description": "<div style=\"width:100%;\">QLQ: <b>Tunnel</b>\n<br><span style=\"font-family: monospace\">tunnel with door; narrow tunnel entrance; Panzertür 434P01 (1.7 m, 30 mm)</span>\n<br><a href=\"thumbs/narvik-bunkers_QLQ.jpg\" target=\"_blank\"><img width=\"100%\" src=\"thumbs/narvik-bunkers_QLQ.jpg\"/></a>\n<br>68.44064,17.43866</div>", "iconImage": "rect-red"}, "geometry": {"type": "Point", "coordinates": [17.43866, 68.44064]}}, {"type": "Feature", "properties": {"name": "TCS", "description": "<div style=\"width:100%;\">TCS: <b>Battle Station</b>\n<br><span style=\"font-family: monospace\">battle platform</span>\n<br><a href=\"thumbs/narvik-bunkers_TCS.jpg\" target=\"_blank\"><img width=\"100%\" src=\"thumbs/narvik-bunkers_TCS.jpg\"/></a>\n<br>68.44164,17.38935</div>", "iconImage": "circle-red"}, "geometry": {"type": "Point", "coordinates": [17.38935, 68.44164]}}, {"type": "Feature", "properties": {"name": "GDG", "description": "<div style=\"width:100%;\">GDG: <b>Building</b>\n<br><span style=\"font-family: monospace\">low foundations of building; building lowered into ground</span>\n<br><a href=\"thumbs/narvik-bunkers_GDG.jpg\" target=\"_blank\"><img width=\"100%\" src=\"thumbs/narvik-bunkers_GDG.jpg\"/></a>\n<br>68.37244,17.42302</div>", "iconImage": "circle-red"}, "geometry": {"type": "Point", "coordinates": [17.42302, 68.37244]}}, {"type": "Feature", "properties": {"name": "HSB", "description": "<div style=\"width:100%;\">HSB: <b>Building</b>\n<br><span style=\"font-family: monospace\">low foundations of building</span>\n<br><a href=\"thumbs/narvik-bunkers_HSB.jpg\" target=\"_blank\"><img width=\"100%\" src=\"thumbs/narvik-bunkers_HSB.jpg\"/></a>\n<br>68.43967,17.39261</div>", "iconImage": "circle-red"}, "geometry": {"type": "Point", "coordinates": [17.39261, 68.43967]}}, {"type": "Feature", "properties": {"name": "GKS", "description": "<div style=\"width:100%;\">GKS: <b>Battle Station</b>\n<br><span style=\"font-family: monospace\">low-walled battle station</span>\n<br><a href=\"thumbs/narvik-bunkers_GKS.jpg\" target=\"_blank\"><img width=\"100%\" src=\"thumbs/narvik-bunkers_GKS.jpg\"/></a>\n<br>68.41248,17.40154</div>", "iconImage": "circle-red"}, "geometry": {"type": "Point", "coordinates": [17.40154, 68.41248]}}, {"type": "Feature", "properties": {"name": "KCR", "description": "<div style=\"width:100%;\">KCR: <b>Bunker</b>\n<br><span style=\"font-family: monospace\">bunker with straight entrance but no visibility</span>\n<br><a href=\"thumbs/narvik-bunkers_KCR.jpg\" target=\"_blank\"><img width=\"100%\" src=\"thumbs/narvik-bunkers_KCR.jpg\"/></a>\n<br>68.39447,17.25252</div>", "iconImage": "circle-red"}, "geometry": {"type": "Point", "coordinates": [17.25252, 68.39447]}}, {"type": "Feature", "properties": {"name": "JGV", "description": "<div style=\"width:100%;\">JGV: <b>Battle Station</b>\n<br><span style=\"font-family: monospace\">battle station</span>\n<br><a href=\"thumbs/narvik-bunkers_JGV.jpg\" target=\"_blank\"><img width=\"100%\" src=\"thumbs/narvik-bunkers_JGV.jpg\"/></a>\n<br>68.40968,17.43067</div>", "iconImage": "circle-red"}, "geometry": {"type": "Point", "coordinates": [17.43067, 68.40968]}}, {"type": "Feature", "properties": {"name": "BBY", "description": "<div style=\"width:100%;\">BBY: <b>Tunnel</b>\n<br>Bolagstunnelen\n<br><span style=\"font-family: monospace\">tunnel with door; narrow tunnel entrance; \"other\" door type</span>\n<br><a href=\"thumbs/narvik-bunkers_BBY.jpg\" target=\"_blank\"><img width=\"100%\" src=\"thumbs/narvik-bunkers_BBY.jpg\"/></a>\n<br>68.43702,17.41055</div>", "iconImage": "rect-red"}, "geometry": {"type": "Point", "coordinates": [17.41055, 68.43702]}}, {"type": "Feature", "properties": {"name": "MWR", "description": "<div style=\"width:100%;\">MWR: <b>Pit</b>\n<br><span style=\"font-family: monospace\">pit</span>\n<br><a href=\"thumbs/narvik-bunkers_MWR.jpg\" target=\"_blank\"><img width=\"100%\" src=\"thumbs/narvik-bunkers_MWR.jpg\"/></a>\n<br>68.41911,17.29782</div>", "iconImage": "u-red"}, "geometry": {"type": "Point", "coordinates": [17.29782, 68.41911]}}, {"type": "Feature", "properties": {"name": "QZS", "description": "<div style=\"width:100%;\">QZS: <b>Pit</b>\n<br><span style=\"font-family: monospace\">pit</span>\n<br><a href=\"thumbs/narvik-bunkers_QZS.jpg\" target=\"_blank\"><img width=\"100%\" src=\"thumbs/narvik-bunkers_QZS.jpg\"/></a>\n<br>68.44262,17.39693</div>", "iconImage": "u-red"}, "geometry": {"type": "Point", "coordinates": [17.39693, 68.44262]}}, {"type": "Feature", "properties": {"name": "KGM", "description": "<div style=\"width:100%;\">KGM: <b>Foundation</b>\n<br><span style=\"font-family: monospace\">rock leveled</span>\n<br><a href=\"thumbs/narvik-bunkers_KGM.jpg\" target=\"_blank\"><img width=\"100%\" src=\"thumbs/narvik-bunkers_KGM.jpg\"/></a>\n<br>68.44092,17.39828</div>", "iconImage": "u-red"}, "geometry": {"type": "Point", "coordinates": [17.39828, 68.44092]}}, {"type": "Feature", "properties": {"name": "ZJW", "description": "<div style=\"width:100%;\">ZJW: <b>Tunnel</b>\n<br><span style=\"font-family: monospace\">tunnel with barricaded entrance; narrow tunnel entrance</span>\n<br><a href=\"thumbs/narvik-bunkers_ZJW.jpg\" target=\"_blank\"><img width=\"100%\" src=\"thumbs/narvik-bunkers_ZJW.jpg\"/></a>\n<br>68.44452,17.42693</div>", "iconImage": "rect-red"}, "geometry": {"type": "Point", "coordinates": [17.42693, 68.44452]}}, {"type": "Feature", "properties": {"name": "TWX", "description": "<div style=\"width:100%;\">TWX: <b>Bunker</b>\n<br><span style=\"font-family: monospace\">ammunition bunker/shelter; damaged</span>\n<br><a href=\"thumbs/narvik-bunkers_TWX.jpg\" target=\"_blank\"><img width=\"100%\" src=\"thumbs/narvik-bunkers_TWX.jpg\"/></a>\n<br>68.42026,17.3775</div>", "iconImage": "circle-red"}, "geometry": {"type": "Point", "coordinates": [17.3775, 68.42026]}}, {"type": "Feature", "properties": {"name": "TLY", "description": "<div style=\"width:100%;\">TLY: <b>Battle Station</b>\n<br><span style=\"font-family: monospace\">battle station at end of a trench; roof over trench; trench</span>\n<br><a href=\"thumbs/narvik-bunkers_TLY.jpg\" target=\"_blank\"><img width=\"100%\" src=\"thumbs/narvik-bunkers_TLY.jpg\"/></a>\n<br>68.43324,17.43653</div>", "iconImage": "circle-red"}, "geometry": {"type": "Point", "coordinates": [17.43653, 68.43324]}}, {"type": "Feature", "properties": {"name": "CLV", "description": "<div style=\"width:100%;\">CLV: <b>Tunnel</b>\n<br><span style=\"font-family: monospace\">open tunnel, no masonry; wide tunnel entrace; obstructed</span>\n<br><a href=\"thumbs/narvik-bunkers_CLV.jpg\" target=\"_blank\"><img width=\"100%\" src=\"thumbs/narvik-bunkers_CLV.jpg\"/></a>\n<br>68.42006,16.6411</div>", "iconImage": "rect-red"}, "geometry": {"type": "Point", "coordinates": [16.6411, 68.42006]}}, {"type": "Feature", "properties": {"name": "WWH", "description": "<div style=\"width:100%;\">WWH: <b>Battle Station</b>\n<br><span style=\"font-family: monospace\">battle station at end of a trench; trench</span>\n<br><a href=\"thumbs/narvik-bunkers_WWH.jpg\" target=\"_blank\"><img width=\"100%\" src=\"thumbs/narvik-bunkers_WWH.jpg\"/></a>\n<br>68.45238,17.47584</div>", "iconImage": "circle-red"}, "geometry": {"type": "Point", "coordinates": [17.47584, 68.45238]}}, {"type": "Feature", "properties": {"name": "QSW", "description": "<div style=\"width:100%;\">QSW: <b>Bunker</b>\n<br><span style=\"font-family: monospace\">bunker with blast protection; multiple bunker rooms</span>\n<br><a href=\"thumbs/narvik-bunkers_QSW.jpg\" target=\"_blank\"><img width=\"100%\" src=\"thumbs/narvik-bunkers_QSW.jpg\"/></a>\n<br>68.37165,17.60524</div>", "iconImage": "circle-red"}, "geometry": {"type": "Point", "coordinates": [17.60524, 68.37165]}}, {"type": "Feature", "properties": {"name": "JXG", "description": "<div style=\"width:100%;\">JXG: <b>Battle Station</b>\n<br><span style=\"font-family: monospace\">battle station at end of a trench</span>\n<br><a href=\"thumbs/narvik-bunkers_JXG.jpg\" target=\"_blank\"><img width=\"100%\" src=\"thumbs/narvik-bunkers_JXG.jpg\"/></a>\n<br>68.44785,17.51595</div>", "iconImage": "circle-red"}, "geometry": {"type": "Point", "coordinates": [17.51595, 68.44785]}}, {"type": "Feature", "properties": {"name": "XDB", "description": "<div style=\"width:100%;\">XDB: <b>Building</b>\n<br><span style=\"font-family: monospace\">low foundations of building</span>\n<br><a href=\"thumbs/narvik-bunkers_XDB.jpg\" target=\"_blank\"><img width=\"100%\" src=\"thumbs/narvik-bunkers_XDB.jpg\"/></a>\n<br>68.44179,17.45329</div>", "iconImage": "circle-red"}, "geometry": {"type": "Point", "coordinates": [17.45329, 68.44179]}}, {"type": "Feature", "properties": {"name": "NGV", "description": "<div style=\"width:100%;\">NGV: <b>Battle Station</b>\n<br><span style=\"font-family: monospace\">battle station at end of a trench; octagonal vertical view port; trench</span>\n<br><a href=\"thumbs/narvik-bunkers_NGV.jpg\" target=\"_blank\"><img width=\"100%\" src=\"thumbs/narvik-bunkers_NGV.jpg\"/></a>\n<br>68.42011,17.30982</div>", "iconImage": "circle-red"}, "geometry": {"type": "Point", "coordinates": [17.30982, 68.42011]}}, {"type": "Feature", "properties": {"name": "BMC", "description": "<div style=\"width:100%;\">BMC: <b>Battle Station</b>\n<br><span style=\"font-family: monospace\">high-walled battle station; ammunition bunker/shelter</span>\n<br><a href=\"thumbs/narvik-bunkers_BMC.jpg\" target=\"_blank\"><img width=\"100%\" src=\"thumbs/narvik-bunkers_BMC.jpg\"/></a>\n<br>68.4222,16.63834</div>", "iconImage": "circle-red"}, "geometry": {"type": "Point", "coordinates": [16.63834, 68.4222]}}, {"type": "Feature", "properties": {"name": "QDS", "description": "<div style=\"width:100%;\">QDS: <b>Battle Station</b>\n<br><span style=\"font-family: monospace\">battle station at end of a trench</span>\n<br><a href=\"thumbs/narvik-bunkers_QDS.jpg\" target=\"_blank\"><img width=\"100%\" src=\"thumbs/narvik-bunkers_QDS.jpg\"/></a>\n<br>68.41377,17.43106</div>", "iconImage": "circle-red"}, "geometry": {"type": "Point", "coordinates": [17.43106, 68.41377]}}, {"type": "Feature", "properties": {"name": "YHL", "description": "<div style=\"width:100%;\">YHL: <b>Tunnel</b>\n<br><span style=\"font-family: monospace\">tunnel with barricaded entrance; narrow tunnel entrance; \"other\" door type</span>\n<br><a href=\"thumbs/narvik-bunkers_YHL.jpg\" target=\"_blank\"><img width=\"100%\" src=\"thumbs/narvik-bunkers_YHL.jpg\"/></a>\n<br>68.41787,17.3886</div>", "iconImage": "rect-red"}, "geometry": {"type": "Point", "coordinates": [17.3886, 68.41787]}}, {"type": "Feature", "properties": {"name": "XBH", "description": "<div style=\"width:100%;\">XBH: <b>Battle Station</b>\n<br><span style=\"font-family: monospace\">battle station at end of a trench; trench</span>\n<br><a href=\"thumbs/narvik-bunkers_XBH.jpg\" target=\"_blank\"><img width=\"100%\" src=\"thumbs/narvik-bunkers_XBH.jpg\"/></a>\n<br>68.44156,17.38888</div>", "iconImage": "circle-red"}, "geometry": {"type": "Point", "coordinates": [17.38888, 68.44156]}}, {"type": "Feature", "properties": {"name": "BNX", "description": "<div style=\"width:100%;\">BNX: <b>Platform</b>\n<br><span style=\"font-family: monospace\">small concrete platform/pedestal</span>\n<br><a href=\"thumbs/narvik-bunkers_BNX.jpg\" target=\"_blank\"><img width=\"100%\" src=\"thumbs/narvik-bunkers_BNX.jpg\"/></a>\n<br>68.41748,17.43141</div>", "iconImage": "circle-red"}, "geometry": {"type": "Point", "coordinates": [17.43141, 68.41748]}}, {"type": "Feature", "properties": {"name": "KJH", "description": "<div style=\"width:100%;\">KJH: <b>Platform</b>\n<br><span style=\"font-family: monospace\">small concrete platform/pedestal; antenna mast</span>\n<br><a href=\"thumbs/narvik-bunkers_KJH.jpg\" target=\"_blank\"><img width=\"100%\" src=\"thumbs/narvik-bunkers_KJH.jpg\"/></a>\n<br>68.43665,17.43646</div>", "iconImage": "circle-red"}, "geometry": {"type": "Point", "coordinates": [17.43646, 68.43665]}}, {"type": "Feature", "properties": {"name": "HQS", "description": "<div style=\"width:100%;\">HQS: <b>Pit</b>\n<br><span style=\"font-family: monospace\">pit</span>\n<br><a href=\"thumbs/narvik-bunkers_HQS.jpg\" target=\"_blank\"><img width=\"100%\" src=\"thumbs/narvik-bunkers_HQS.jpg\"/></a>\n<br>68.44152,17.38886</div>", "iconImage": "u-red"}, "geometry": {"type": "Point", "coordinates": [17.38886, 68.44152]}}, {"type": "Feature", "properties": {"name": "XVM", "description": "<div style=\"width:100%;\">XVM: <b>Tunnel</b>\n<br><span style=\"font-family: monospace\">tunnel with door; narrow tunnel entrance; Bogen Verft A/S door</span>\n<br><a href=\"thumbs/narvik-bunkers_XVM.jpg\" target=\"_blank\"><img width=\"100%\" src=\"thumbs/narvik-bunkers_XVM.jpg\"/></a>\n<br>68.44426,17.43423</div>", "iconImage": "rect-red"}, "geometry": {"type": "Point", "coordinates": [17.43423, 68.44426]}}, {"type": "Feature", "properties": {"name": "MLS", "description": "<div style=\"width:100%;\">MLS: <b>Building</b>\n<br><span style=\"font-family: monospace\">building walls</span>\n<br><a href=\"thumbs/narvik-bunkers_MLS.jpg\" target=\"_blank\"><img width=\"100%\" src=\"thumbs/narvik-bunkers_MLS.jpg\"/></a>\n<br>68.19195,17.32784</div>", "iconImage": "circle-red"}, "geometry": {"type": "Point", "coordinates": [17.32784, 68.19195]}}, {"type": "Feature", "properties": {"name": "JPB", "description": "<div style=\"width:100%;\">JPB: <b>Battle Station</b>\n<br><span style=\"font-family: monospace\">walled battle station</span>\n<br><a href=\"thumbs/narvik-bunkers_JPB.jpg\" target=\"_blank\"><img width=\"100%\" src=\"thumbs/narvik-bunkers_JPB.jpg\"/></a>\n<br>68.45215,17.47476</div>", "iconImage": "circle-red"}, "geometry": {"type": "Point", "coordinates": [17.47476, 68.45215]}}, {"type": "Feature", "properties": {"name": "JTN", "description": "<div style=\"width:100%;\">JTN: <b>Battle Station</b>\n<br><span style=\"font-family: monospace\">low-walled battle station</span>\n<br><a href=\"thumbs/narvik-bunkers_JTN.jpg\" target=\"_blank\"><img width=\"100%\" src=\"thumbs/narvik-bunkers_JTN.jpg\"/></a>\n<br>68.43491,17.44037</div>", "iconImage": "circle-red"}, "geometry": {"type": "Point", "coordinates": [17.44037, 68.43491]}}, {"type": "Feature", "properties": {"name": "HWR", "description": "<div style=\"width:100%;\">HWR: <b>Battle Station</b>\n<br><span style=\"font-family: monospace\">high-walled battle station; ammunition bunker/shelter</span>\n<br><a href=\"thumbs/narvik-bunkers_HWR.jpg\" target=\"_blank\"><img width=\"100%\" src=\"thumbs/narvik-bunkers_HWR.jpg\"/></a>\n<br>68.4584,17.02105</div>", "iconImage": "circle-red"}, "geometry": {"type": "Point", "coordinates": [17.02105, 68.4584]}}, {"type": "Feature", "properties": {"name": "BGR", "description": "<div style=\"width:100%;\">BGR: <b>Bunker</b>\n<br><span style=\"font-family: monospace\">bunker; embrasure; removed</span>\n<br><a href=\"thumbs/narvik-bunkers_BGR.jpg\" target=\"_blank\"><img width=\"100%\" src=\"thumbs/narvik-bunkers_BGR.jpg\"/></a>\n<br>68.43837,17.42719</div>", "iconImage": "cross-red"}, "geometry": {"type": "Point", "coordinates": [17.42719, 68.43837]}}, {"type": "Feature", "properties": {"name": "NDM", "description": "<div style=\"width:100%;\">NDM: <b>Bunker</b>\n<br><span style=\"font-family: monospace\">ammunition bunker/shelter; walled battle station</span>\n<br><a href=\"thumbs/narvik-bunkers_NDM.jpg\" target=\"_blank\"><img width=\"100%\" src=\"thumbs/narvik-bunkers_NDM.jpg\"/></a>\n<br>68.43565,17.39412</div>", "iconImage": "circle-red"}, "geometry": {"type": "Point", "coordinates": [17.39412, 68.43565]}}, {"type": "Feature", "properties": {"name": "NPB", "description": "<div style=\"width:100%;\">NPB: <b>Building</b>\n<br><span style=\"font-family: monospace\">building walls; building lowered into ground</span>\n<br><a href=\"thumbs/narvik-bunkers_NPB.jpg\" target=\"_blank\"><img width=\"100%\" src=\"thumbs/narvik-bunkers_NPB.jpg\"/></a>\n<br>68.4355,17.39666</div>", "iconImage": "circle-red"}, "geometry": {"type": "Point", "coordinates": [17.39666, 68.4355]}}, {"type": "Feature", "properties": {"name": "XLW", "description": "<div style=\"width:100%;\">XLW: <b>Battle Station</b>\n<br><span style=\"font-family: monospace\">embrasure; attached tunnel</span>\n<br><a href=\"thumbs/narvik-bunkers_XLW.jpg\" target=\"_blank\"><img width=\"100%\" src=\"thumbs/narvik-bunkers_XLW.jpg\"/></a>\n<br>68.39405,17.25139</div>", "iconImage": "circle-red"}, "geometry": {"type": "Point", "coordinates": [17.25139, 68.39405]}}, {"type": "Feature", "properties": {"name": "MCX", "description": "<div style=\"width:100%;\">MCX: <b>Pit</b>\n<br><span style=\"font-family: monospace\">pit</span>\n<br><a href=\"thumbs/narvik-bunkers_MCX.jpg\" target=\"_blank\"><img width=\"100%\" src=\"thumbs/narvik-bunkers_MCX.jpg\"/></a>\n<br>68.44735,17.41463</div>", "iconImage": "u-red"}, "geometry": {"type": "Point", "coordinates": [17.41463, 68.44735]}}, {"type": "Feature", "properties": {"name": "HJM", "description": "<div style=\"width:100%;\">HJM: <b>Trench</b>\n<br><span style=\"font-family: monospace\">lookout</span>\n<br><a href=\"thumbs/narvik-bunkers_HJM.jpg\" target=\"_blank\"><img width=\"100%\" src=\"thumbs/narvik-bunkers_HJM.jpg\"/></a>\n<br>68.44194,17.39605</div>", "iconImage": "circle-red"}, "geometry": {"type": "Point", "coordinates": [17.39605, 68.44194]}}, {"type": "Feature", "properties": {"name": "ZTV", "description": "<div style=\"width:100%;\">ZTV: <b>Battle Station</b>\n<br><span style=\"font-family: monospace\">low-walled battle station</span>\n<br><a href=\"thumbs/narvik-bunkers_ZTV.jpg\" target=\"_blank\"><img width=\"100%\" src=\"thumbs/narvik-bunkers_ZTV.jpg\"/></a>\n<br>68.44069,17.38861</div>", "iconImage": "circle-red"}, "geometry": {"type": "Point", "coordinates": [17.38861, 68.44069]}}, {"type": "Feature", "properties": {"name": "QCK", "description": "<div style=\"width:100%;\">QCK: <b>Foundation</b>\n<br><span style=\"font-family: monospace\">rock leveled</span>\n<br><a href=\"thumbs/narvik-bunkers_QCK.jpg\" target=\"_blank\"><img width=\"100%\" src=\"thumbs/narvik-bunkers_QCK.jpg\"/></a>\n<br>68.44184,17.38987</div>", "iconImage": "u-red"}, "geometry": {"type": "Point", "coordinates": [17.38987, 68.44184]}}, {"type": "Feature", "properties": {"name": "RCM", "description": "<div style=\"width:100%;\">RCM: <b>Tunnel</b>\n<br><span style=\"font-family: monospace\">tunnel with door; wide tunnel entrace; \"other\" door type</span>\n<br><a href=\"thumbs/narvik-bunkers_RCM.jpg\" target=\"_blank\"><img width=\"100%\" src=\"thumbs/narvik-bunkers_RCM.jpg\"/></a>\n<br>68.43572,17.43274</div>", "iconImage": "rect-red"}, "geometry": {"type": "Point", "coordinates": [17.43274, 68.43572]}}, {"type": "Feature", "properties": {"name": "QYK", "description": "<div style=\"width:100%;\">QYK: <b>Battle Station</b>\n<br><span style=\"font-family: monospace\">battle station at end of a trench</span>\n<br><a href=\"thumbs/narvik-bunkers_QYK.jpg\" target=\"_blank\"><img width=\"100%\" src=\"thumbs/narvik-bunkers_QYK.jpg\"/></a>\n<br>68.41945,17.31223</div>", "iconImage": "circle-red"}, "geometry": {"type": "Point", "coordinates": [17.31223, 68.41945]}}, {"type": "Feature", "properties": {"name": "LQD", "description": "<div style=\"width:100%;\">LQD: <b>Battle Station</b>\n<br><span style=\"font-family: monospace\">embrasure</span>\n<br><a href=\"thumbs/narvik-bunkers_LQD.jpg\" target=\"_blank\"><img width=\"100%\" src=\"thumbs/narvik-bunkers_LQD.jpg\"/></a>\n<br>68.44333,17.39611</div>", "iconImage": "circle-red"}, "geometry": {"type": "Point", "coordinates": [17.39611, 68.44333]}}, {"type": "Feature", "properties": {"name": "CZW", "description": "<div style=\"width:100%;\">CZW: <b>Tunnel</b>\n<br><span style=\"font-family: monospace\">tunnel entrance walled shut; wide tunnel entrace</span>\n<br><a href=\"thumbs/narvik-bunkers_CZW.jpg\" target=\"_blank\"><img width=\"100%\" src=\"thumbs/narvik-bunkers_CZW.jpg\"/></a>\n<br>68.4315,17.42453</div>", "iconImage": "rect-red"}, "geometry": {"type": "Point", "coordinates": [17.42453, 68.4315]}}, {"type": "Feature", "properties": {"name": "BBN", "description": "<div style=\"width:100%;\">BBN: <b>Battle Station</b>\n<br><span style=\"font-family: monospace\">high-walled battle station; ammunition bunker/shelter</span>\n<br><a href=\"thumbs/narvik-bunkers_BBN.jpg\" target=\"_blank\"><img width=\"100%\" src=\"thumbs/narvik-bunkers_BBN.jpg\"/></a>\n<br>68.46697,17.47245</div>", "iconImage": "circle-red"}, "geometry": {"type": "Point", "coordinates": [17.47245, 68.46697]}}, {"type": "Feature", "properties": {"name": "RPL", "description": "<div style=\"width:100%;\">RPL: <b>Building</b>\n<br><span style=\"font-family: monospace\">low foundations of building</span>\n<br><a href=\"thumbs/narvik-bunkers_RPL.jpg\" target=\"_blank\"><img width=\"100%\" src=\"thumbs/narvik-bunkers_RPL.jpg\"/></a>\n<br>68.43466,17.3913</div>", "iconImage": "circle-red"}, "geometry": {"type": "Point", "coordinates": [17.3913, 68.43466]}}, {"type": "Feature", "properties": {"name": "RTM", "description": "<div style=\"width:100%;\">RTM: <b>Pit</b>\n<br><span style=\"font-family: monospace\">pit; trench</span>\n<br><a href=\"thumbs/narvik-bunkers_RTM.jpg\" target=\"_blank\"><img width=\"100%\" src=\"thumbs/narvik-bunkers_RTM.jpg\"/></a>\n<br>68.40294,17.33431</div>", "iconImage": "u-red"}, "geometry": {"type": "Point", "coordinates": [17.33431, 68.40294]}}, {"type": "Feature", "properties": {"name": "ZBY", "description": "<div style=\"width:100%;\">ZBY: <b>Building</b>\n<br><span style=\"font-family: monospace\">bunker-style building; ammunition bunker/shelter</span>\n<br><a href=\"thumbs/narvik-bunkers_ZBY.jpg\" target=\"_blank\"><img width=\"100%\" src=\"thumbs/narvik-bunkers_ZBY.jpg\"/></a>\n<br>68.47089,17.48631</div>", "iconImage": "circle-red"}, "geometry": {"type": "Point", "coordinates": [17.48631, 68.47089]}}, {"type": "Feature", "properties": {"name": "NXG", "description": "<div style=\"width:100%;\">NXG: <b>Tunnel</b>\n<br><span style=\"font-family: monospace\">tunnel with barricaded entrance; narrow tunnel entrance; \"other\" door type</span>\n<br><a href=\"thumbs/narvik-bunkers_NXG.jpg\" target=\"_blank\"><img width=\"100%\" src=\"thumbs/narvik-bunkers_NXG.jpg\"/></a>\n<br>68.437,17.43687</div>", "iconImage": "rect-red"}, "geometry": {"type": "Point", "coordinates": [17.43687, 68.437]}}, {"type": "Feature", "properties": {"name": "TRX", "description": "<div style=\"width:100%;\">TRX: <b>Battle Station</b>\n<br><span style=\"font-family: monospace\">low-walled battle station</span>\n<br><a href=\"thumbs/narvik-bunkers_TRX.jpg\" target=\"_blank\"><img width=\"100%\" src=\"thumbs/narvik-bunkers_TRX.jpg\"/></a>\n<br>68.41243,17.40223</div>", "iconImage": "circle-red"}, "geometry": {"type": "Point", "coordinates": [17.40223, 68.41243]}}, {"type": "Feature", "properties": {"name": "SLW", "description": "<div style=\"width:100%;\">SLW: <b>Battle Station</b>\n<br><span style=\"font-family: monospace\">high-walled battle station; ammunition bunker/shelter</span>\n<br><a href=\"thumbs/narvik-bunkers_SLW.jpg\" target=\"_blank\"><img width=\"100%\" src=\"thumbs/narvik-bunkers_SLW.jpg\"/></a>\n<br>68.47103,17.48551</div>", "iconImage": "circle-red"}, "geometry": {"type": "Point", "coordinates": [17.48551, 68.47103]}}, {"type": "Feature", "properties": {"name": "HGR", "description": "<div style=\"width:100%;\">HGR: <b>Bunker</b>\n<br><span style=\"font-family: monospace\">bunker with locked entrance</span>\n<br><a href=\"thumbs/narvik-bunkers_HGR.jpg\" target=\"_blank\"><img width=\"100%\" src=\"thumbs/narvik-bunkers_HGR.jpg\"/></a>\n<br>68.45389,16.71074</div>", "iconImage": "circle-red"}, "geometry": {"type": "Point", "coordinates": [16.71074, 68.45389]}}, {"type": "Feature", "properties": {"name": "RRR", "description": "<div style=\"width:100%;\">RRR: <b>Bunker</b>\n<br><span style=\"font-family: monospace\">bunker with blast protection</span>\n<br><a href=\"thumbs/narvik-bunkers_RRR.jpg\" target=\"_blank\"><img width=\"100%\" src=\"thumbs/narvik-bunkers_RRR.jpg\"/></a>\n<br>68.371,17.25</div>", "iconImage": "circle-red"}, "geometry": {"type": "Point", "coordinates": [17.25, 68.371]}}, {"type": "Feature", "properties": {"name": "YPG", "description": "<div style=\"width:100%;\">YPG: <b>Battle Station</b>\n<br><span style=\"font-family: monospace\">3-direction roofed lookout; bunker with straight entrance</span>\n<br><a href=\"thumbs/narvik-bunkers_YPG.jpg\" target=\"_blank\"><img width=\"100%\" src=\"thumbs/narvik-bunkers_YPG.jpg\"/></a>\n<br>68.45505,16.713</div>", "iconImage": "circle-red"}, "geometry": {"type": "Point", "coordinates": [16.713, 68.45505]}}, {"type": "Feature", "properties": {"name": "LNL", "description": "<div style=\"width:100%;\">LNL: <b>Battle Station</b>\n<br><span style=\"font-family: monospace\">high-walled battle station; ammunition bunker/shelter</span>\n<br><a href=\"thumbs/narvik-bunkers_LNL.jpg\" target=\"_blank\"><img width=\"100%\" src=\"thumbs/narvik-bunkers_LNL.jpg\"/></a>\n<br>68.4573,17.0195</div>", "iconImage": "circle-red"}, "geometry": {"type": "Point", "coordinates": [17.0195, 68.4573]}}, {"type": "Feature", "properties": {"name": "HLH", "description": "<div style=\"width:100%;\">HLH: <b>Tunnel</b>\n<br><span style=\"font-family: monospace\">tunnel with barricaded entrance</span>\n<br><a href=\"thumbs/narvik-bunkers_HLH.jpg\" target=\"_blank\"><img width=\"100%\" src=\"thumbs/narvik-bunkers_HLH.jpg\"/></a>\n<br>68.45666,17.01887</div>", "iconImage": "rect-red"}, "geometry": {"type": "Point", "coordinates": [17.01887, 68.45666]}}, {"type": "Feature", "properties": {"name": "ZSM", "description": "<div style=\"width:100%;\">ZSM: <b>Battle Station</b>\n<br><span style=\"font-family: monospace\">low-walled battle station; attached tunnel</span>\n<br><a href=\"thumbs/narvik-bunkers_ZSM.jpg\" target=\"_blank\"><img width=\"100%\" src=\"thumbs/narvik-bunkers_ZSM.jpg\"/></a>\n<br>68.44743,17.40796</div>", "iconImage": "circle-red"}, "geometry": {"type": "Point", "coordinates": [17.40796, 68.44743]}}, {"type": "Feature", "properties": {"name": "MPW", "description": "<div style=\"width:100%;\">MPW: <b>Battle Station</b>\n<br><span style=\"font-family: monospace\">walled battle station</span>\n<br><a href=\"thumbs/narvik-bunkers_MPW.jpg\" target=\"_blank\"><img width=\"100%\" src=\"thumbs/narvik-bunkers_MPW.jpg\"/></a>\n<br>68.4354,17.39742</div>", "iconImage": "circle-red"}, "geometry": {"type": "Point", "coordinates": [17.39742, 68.4354]}}, {"type": "Feature", "properties": {"name": "GVQ", "description": "<div style=\"width:100%;\">GVQ: <b>Bunker</b>\n<br><span style=\"font-family: monospace\">bunker with straight entrance; \"other\" door type</span>\n<br><a href=\"thumbs/narvik-bunkers_GVQ.jpg\" target=\"_blank\"><img width=\"100%\" src=\"thumbs/narvik-bunkers_GVQ.jpg\"/></a>\n<br>68.42004,17.37712</div>", "iconImage": "circle-red"}, "geometry": {"type": "Point", "coordinates": [17.37712, 68.42004]}}, {"type": "Feature", "properties": {"name": "LZR", "description": "<div style=\"width:100%;\">LZR: <b>Bunker</b>\n<br><span style=\"font-family: monospace\">bunker; damaged</span>\n<br><a href=\"thumbs/narvik-bunkers_LZR.jpg\" target=\"_blank\"><img width=\"100%\" src=\"thumbs/narvik-bunkers_LZR.jpg\"/></a>\n<br>68.44211,17.40894</div>", "iconImage": "circle-red"}, "geometry": {"type": "Point", "coordinates": [17.40894, 68.44211]}}, {"type": "Feature", "properties": {"name": "BXY", "description": "<div style=\"width:100%;\">BXY: <b>Marine Launch</b>\n<br><span style=\"font-family: monospace\">marine launch point</span>\n<br><a href=\"thumbs/narvik-bunkers_BXY.jpg\" target=\"_blank\"><img width=\"100%\" src=\"thumbs/narvik-bunkers_BXY.jpg\"/></a>\n<br>68.44283,17.39147</div>", "iconImage": "u-red"}, "geometry": {"type": "Point", "coordinates": [17.39147, 68.44283]}}, {"type": "Feature", "properties": {"name": "GPH", "description": "<div style=\"width:100%;\">GPH: <b>Marine Launch</b>\n<br><span style=\"font-family: monospace\">marine launch point</span>\n<br><a href=\"thumbs/narvik-bunkers_GPH.jpg\" target=\"_blank\"><img width=\"100%\" src=\"thumbs/narvik-bunkers_GPH.jpg\"/></a>\n<br>68.44743,17.41075</div>", "iconImage": "u-red"}, "geometry": {"type": "Point", "coordinates": [17.41075, 68.44743]}}, {"type": "Feature", "properties": {"name": "KMK", "description": "<div style=\"width:100%;\">KMK: <b>Battle Station</b>\n<br><span style=\"font-family: monospace\">embrasure; bunker with blast protection; attached tunnel</span>\n<br><a href=\"thumbs/narvik-bunkers_KMK.jpg\" target=\"_blank\"><img width=\"100%\" src=\"thumbs/narvik-bunkers_KMK.jpg\"/></a>\n<br>68.43238,17.43619</div>", "iconImage": "circle-red"}, "geometry": {"type": "Point", "coordinates": [17.43619, 68.43238]}}, {"type": "Feature", "properties": {"name": "DSH", "description": "<div style=\"width:100%;\">DSH: <b>Battle Station</b>\n<br><span style=\"font-family: monospace\">3-direction roofed lookout; embrasure; ammunition bunker/shelter; bunker with straight entrance but no visibility; attached tunnel; roof over trench; trench</span>\n<br><a href=\"thumbs/narvik-bunkers_DSH.jpg\" target=\"_blank\"><img width=\"100%\" src=\"thumbs/narvik-bunkers_DSH.jpg\"/></a>\n<br>68.383163,17.042827</div>", "iconImage": "circle-red"}, "geometry": {"type": "Point", "coordinates": [17.042827, 68.383163]}}, {"type": "Feature", "properties": {"name": "PML", "description": "<div style=\"width:100%;\">PML: <b>Pit</b>\n<br><span style=\"font-family: monospace\">pit</span>\n<br><a href=\"thumbs/narvik-bunkers_PML.jpg\" target=\"_blank\"><img width=\"100%\" src=\"thumbs/narvik-bunkers_PML.jpg\"/></a>\n<br>68.43746,17.39411</div>", "iconImage": "u-red"}, "geometry": {"type": "Point", "coordinates": [17.39411, 68.43746]}}, {"type": "Feature", "properties": {"name": "MHD", "description": "<div style=\"width:100%;\">MHD: <b>Battle Station</b>\n<br><span style=\"font-family: monospace\">embrasure; attached tunnel</span>\n<br><a href=\"thumbs/narvik-bunkers_MHD.jpg\" target=\"_blank\"><img width=\"100%\" src=\"thumbs/narvik-bunkers_MHD.jpg\"/></a>\n<br>68.44123,17.38794</div>", "iconImage": "circle-red"}, "geometry": {"type": "Point", "coordinates": [17.38794, 68.44123]}}, {"type": "Feature", "properties": {"name": "GRN", "description": "<div style=\"width:100%;\">GRN: <b>Bunker</b>\n<br><span style=\"font-family: monospace\">bunker with blast protection</span>\n<br><a href=\"thumbs/narvik-bunkers_GRN.jpg\" target=\"_blank\"><img width=\"100%\" src=\"thumbs/narvik-bunkers_GRN.jpg\"/></a>\n<br>68.42066,16.63864</div>", "iconImage": "circle-red"}, "geometry": {"type": "Point", "coordinates": [16.63864, 68.42066]}}, {"type": "Feature", "properties": {"name": "DCR", "description": "<div style=\"width:100%;\">DCR: <b>Battle Station</b>\n<br><span style=\"font-family: monospace\">high-walled battle station</span>\n<br><a href=\"thumbs/narvik-bunkers_DCR.jpg\" target=\"_blank\"><img width=\"100%\" src=\"thumbs/narvik-bunkers_DCR.jpg\"/></a>\n<br>68.47112,17.48447</div>", "iconImage": "circle-red"}, "geometry": {"type": "Point", "coordinates": [17.48447, 68.47112]}}, {"type": "Feature", "properties": {"name": "PJH", "description": "<div style=\"width:100%;\">PJH: <b>Tunnel</b>\n<br><span style=\"font-family: monospace\">tunnel with door; wide tunnel entrace; Bogen Verft A/S door</span>\n<br><a href=\"thumbs/narvik-bunkers_PJH.jpg\" target=\"_blank\"><img width=\"100%\" src=\"thumbs/narvik-bunkers_PJH.jpg\"/></a>\n<br>68.41543,17.39758</div>", "iconImage": "rect-red"}, "geometry": {"type": "Point", "coordinates": [17.39758, 68.41543]}}, {"type": "Feature", "properties": {"name": "VRZ", "description": "<div style=\"width:100%;\">VRZ: <b>Bunker</b>\n<br><span style=\"font-family: monospace\">bunker; multiple bunker rooms; 3-direction roofed lookout</span>\n<br><a href=\"thumbs/narvik-bunkers_VRZ.jpg\" target=\"_blank\"><img width=\"100%\" src=\"thumbs/narvik-bunkers_VRZ.jpg\"/></a>\n<br>68.46656,17.47297</div>", "iconImage": "circle-red"}, "geometry": {"type": "Point", "coordinates": [17.47297, 68.46656]}}, {"type": "Feature", "properties": {"name": "NJQ", "description": "<div style=\"width:100%;\">NJQ: <b>Bunker</b>\n<br><span style=\"font-family: monospace\">bunker with blast protection</span>\n<br><a href=\"thumbs/narvik-bunkers_NJQ.jpg\" target=\"_blank\"><img width=\"100%\" src=\"thumbs/narvik-bunkers_NJQ.jpg\"/></a>\n<br>68.4206,16.63849</div>", "iconImage": "circle-red"}, "geometry": {"type": "Point", "coordinates": [16.63849, 68.4206]}}, {"type": "Feature", "properties": {"name": "VRP", "description": "<div style=\"width:100%;\">VRP: <b>Tunnel</b>\n<br>Knausen bypass tunnel\n<br><span style=\"font-family: monospace\">open tunnel, no masonry; narrow tunnel entrance</span>\n<br><a href=\"thumbs/narvik-bunkers_VRP.jpg\" target=\"_blank\"><img width=\"100%\" src=\"thumbs/narvik-bunkers_VRP.jpg\"/></a>\n<br>68.44542,17.51732</div>", "iconImage": "rect-red"}, "geometry": {"type": "Point", "coordinates": [17.51732, 68.44542]}}, {"type": "Feature", "properties": {"name": "SXH", "description": "<div style=\"width:100%;\">SXH: <b>Pit</b>\n<br><span style=\"font-family: monospace\">pit</span>\n<br><a href=\"thumbs/narvik-bunkers_SXH.jpg\" target=\"_blank\"><img width=\"100%\" src=\"thumbs/narvik-bunkers_SXH.jpg\"/></a>\n<br>68.40986,17.43151</div>", "iconImage": "u-red"}, "geometry": {"type": "Point", "coordinates": [17.43151, 68.40986]}}, {"type": "Feature", "properties": {"name": "DGX", "description": "<div style=\"width:100%;\">DGX: <b>Tunnel</b>\n<br><span style=\"font-family: monospace\">open tunnel, no masonry; narrow tunnel entrance</span>\n<br><a href=\"thumbs/narvik-bunkers_DGX.jpg\" target=\"_blank\"><img width=\"100%\" src=\"thumbs/narvik-bunkers_DGX.jpg\"/></a>\n<br>68.51736,17.0047</div>", "iconImage": "rect-red"}, "geometry": {"type": "Point", "coordinates": [17.0047, 68.51736]}}, {"type": "Feature", "properties": {"name": "MWG", "description": "<div style=\"width:100%;\">MWG: <b>Building</b>\n<br><span style=\"font-family: monospace\">building lowered into ground</span>\n<br><a href=\"thumbs/narvik-bunkers_MWG.jpg\" target=\"_blank\"><img width=\"100%\" src=\"thumbs/narvik-bunkers_MWG.jpg\"/></a>\n<br>68.4319,17.38863</div>", "iconImage": "u-red"}, "geometry": {"type": "Point", "coordinates": [17.38863, 68.4319]}}, {"type": "Feature", "properties": {"name": "NYP", "description": "<div style=\"width:100%;\">NYP: <b>Trench</b>\n<br><span style=\"font-family: monospace\">lookout</span>\n<br><a href=\"thumbs/narvik-bunkers_NYP.jpg\" target=\"_blank\"><img width=\"100%\" src=\"thumbs/narvik-bunkers_NYP.jpg\"/></a>\n<br>68.44,17.39228</div>", "iconImage": "circle-red"}, "geometry": {"type": "Point", "coordinates": [17.39228, 68.44]}}, {"type": "Feature", "properties": {"name": "SZM", "description": "<div style=\"width:100%;\">SZM: <b>Bunker</b>\n<br><span style=\"font-family: monospace\">bunker with straight entrance but no visibility</span>\n<br><a href=\"thumbs/narvik-bunkers_SZM.jpg\" target=\"_blank\"><img width=\"100%\" src=\"thumbs/narvik-bunkers_SZM.jpg\"/></a>\n<br>68.37111,17.25063</div>", "iconImage": "circle-red"}, "geometry": {"type": "Point", "coordinates": [17.25063, 68.37111]}}, {"type": "Feature", "properties": {"name": "KPQ", "description": "<div style=\"width:100%;\">KPQ: <b>Marine Launch</b>\n<br><span style=\"font-family: monospace\">marine launch point</span>\n<br><a href=\"thumbs/narvik-bunkers_KPQ.jpg\" target=\"_blank\"><img width=\"100%\" src=\"thumbs/narvik-bunkers_KPQ.jpg\"/></a>\n<br>68.44744,17.41884</div>", "iconImage": "u-red"}, "geometry": {"type": "Point", "coordinates": [17.41884, 68.44744]}}, {"type": "Feature", "properties": {"name": "WSZ", "description": "<div style=\"width:100%;\">WSZ: <b>Battle Station</b>\n<br><span style=\"font-family: monospace\">high-walled battle station</span>\n<br><a href=\"thumbs/narvik-bunkers_WSZ.jpg\" target=\"_blank\"><img width=\"100%\" src=\"thumbs/narvik-bunkers_WSZ.jpg\"/></a>\n<br>68.47101,17.48376</div>", "iconImage": "circle-red"}, "geometry": {"type": "Point", "coordinates": [17.48376, 68.47101]}}, {"type": "Feature", "properties": {"name": "BHP", "description": "<div style=\"width:100%;\">BHP: <b>Pit</b>\n<br><span style=\"font-family: monospace\">pit</span>\n<br><a href=\"thumbs/narvik-bunkers_BHP.jpg\" target=\"_blank\"><img width=\"100%\" src=\"thumbs/narvik-bunkers_BHP.jpg\"/></a>\n<br>68.43362,17.3872</div>", "iconImage": "u-red"}, "geometry": {"type": "Point", "coordinates": [17.3872, 68.43362]}}, {"type": "Feature", "properties": {"name": "STZ", "description": "<div style=\"width:100%;\">STZ: <b>Trench</b>\n<br><span style=\"font-family: monospace\">lookout</span>\n<br><a href=\"thumbs/narvik-bunkers_STZ.jpg\" target=\"_blank\"><img width=\"100%\" src=\"thumbs/narvik-bunkers_STZ.jpg\"/></a>\n<br>68.44728,17.41126</div>", "iconImage": "circle-red"}, "geometry": {"type": "Point", "coordinates": [17.41126, 68.44728]}}, {"type": "Feature", "properties": {"name": "LBM", "description": "<div style=\"width:100%;\">LBM: <b>Pit</b>\n<br><span style=\"font-family: monospace\">pit</span>\n<br><a href=\"thumbs/narvik-bunkers_LBM.jpg\" target=\"_blank\"><img width=\"100%\" src=\"thumbs/narvik-bunkers_LBM.jpg\"/></a>\n<br>68.43389,17.38619</div>", "iconImage": "u-red"}, "geometry": {"type": "Point", "coordinates": [17.38619, 68.43389]}}, {"type": "Feature", "properties": {"name": "KXJ", "description": "<div style=\"width:100%;\">KXJ: <b>Bunker</b>\n<br><span style=\"font-family: monospace\">ammunition bunker/shelter; walled battle station</span>\n<br><a href=\"thumbs/narvik-bunkers_KXJ.jpg\" target=\"_blank\"><img width=\"100%\" src=\"thumbs/narvik-bunkers_KXJ.jpg\"/></a>\n<br>68.43306,17.38971</div>", "iconImage": "circle-red"}, "geometry": {"type": "Point", "coordinates": [17.38971, 68.43306]}}, {"type": "Feature", "properties": {"name": "DLM", "description": "<div style=\"width:100%;\">DLM: <b>Building</b>\n<br><span style=\"font-family: monospace\">low foundations of building</span>\n<br><a href=\"thumbs/narvik-bunkers_DLM.jpg\" target=\"_blank\"><img width=\"100%\" src=\"thumbs/narvik-bunkers_DLM.jpg\"/></a>\n<br>68.471,17.48413</div>", "iconImage": "circle-red"}, "geometry": {"type": "Point", "coordinates": [17.48413, 68.471]}}, {"type": "Feature", "properties": {"name": "GNV", "description": "<div style=\"width:100%;\">GNV: <b>Foundation</b>\n<br><span style=\"font-family: monospace\">rock leveled</span>\n<br><a href=\"thumbs/narvik-bunkers_GNV.jpg\" target=\"_blank\"><img width=\"100%\" src=\"thumbs/narvik-bunkers_GNV.jpg\"/></a>\n<br>68.3711,17.42581</div>", "iconImage": "u-red"}, "geometry": {"type": "Point", "coordinates": [17.42581, 68.3711]}}, {"type": "Feature", "properties": {"name": "TNT", "description": "<div style=\"width:100%;\">TNT: <b>Bunker</b>\n<br><span style=\"font-family: monospace\">bunker; attached tunnel; damaged</span>\n<br><a href=\"thumbs/narvik-bunkers_TNT.jpg\" target=\"_blank\"><img width=\"100%\" src=\"thumbs/narvik-bunkers_TNT.jpg\"/></a>\n<br>68.41914,17.29688</div>", "iconImage": "circle-red"}, "geometry": {"type": "Point", "coordinates": [17.29688, 68.41914]}}, {"type": "Feature", "properties": {"name": "BCW", "description": "<div style=\"width:100%;\">BCW: <b>Debris</b>\n<br><span style=\"font-family: monospace\">concrete debris</span>\n<br><a href=\"thumbs/narvik-bunkers_BCW.jpg\" target=\"_blank\"><img width=\"100%\" src=\"thumbs/narvik-bunkers_BCW.jpg\"/></a>\n<br>68.41019,17.43344</div>", "iconImage": "circle-red"}, "geometry": {"type": "Point", "coordinates": [17.43344, 68.41019]}}, {"type": "Feature", "properties": {"name": "VQG", "description": "<div style=\"width:100%;\">VQG: <b>Unidentified</b>\n<br><span style=\"font-family: monospace\">unidentified</span>\n<br><a href=\"thumbs/narvik-bunkers_VQG.jpg\" target=\"_blank\"><img width=\"100%\" src=\"thumbs/narvik-bunkers_VQG.jpg\"/></a>\n<br>68.37201,17.42234</div>", "iconImage": "circle-red"}, "geometry": {"type": "Point", "coordinates": [17.42234, 68.37201]}}, {"type": "Feature", "properties": {"name": "WTM", "description": "<div style=\"width:100%;\">WTM: <b>Trench</b>\n<br><span style=\"font-family: monospace\">lookout</span>\n<br><a href=\"thumbs/narvik-bunkers_WTM.jpg\" target=\"_blank\"><img width=\"100%\" src=\"thumbs/narvik-bunkers_WTM.jpg\"/></a>\n<br>68.44265,17.39211</div>", "iconImage": "circle-red"}, "geometry": {"type": "Point", "coordinates": [17.39211, 68.44265]}}, {"type": "Feature", "properties": {"name": "MVJ", "description": "<div style=\"width:100%;\">MVJ: <b>Building</b>\n<br><span style=\"font-family: monospace\">low foundations of building; building lowered into ground</span>\n<br><a href=\"thumbs/narvik-bunkers_MVJ.jpg\" target=\"_blank\"><img width=\"100%\" src=\"thumbs/narvik-bunkers_MVJ.jpg\"/></a>\n<br>68.37252,17.42136</div>", "iconImage": "circle-red"}, "geometry": {"type": "Point", "coordinates": [17.42136, 68.37252]}}, {"type": "Feature", "properties": {"name": "GSW", "description": "<div style=\"width:100%;\">GSW: <b>Battle Station</b>\n<br><span style=\"font-family: monospace\">high-walled battle station; ammunition bunker/shelter</span>\n<br><a href=\"thumbs/narvik-bunkers_GSW.jpg\" target=\"_blank\"><img width=\"100%\" src=\"thumbs/narvik-bunkers_GSW.jpg\"/></a>\n<br>68.49844,17.07756</div>", "iconImage": "circle-red"}, "geometry": {"type": "Point", "coordinates": [17.07756, 68.49844]}}, {"type": "Feature", "properties": {"name": "RLJ", "description": "<div style=\"width:100%;\">RLJ: <b>Battle Station</b>\n<br><span style=\"font-family: monospace\">high-walled battle station; ammunition bunker/shelter</span>\n<br><a href=\"thumbs/narvik-bunkers_RLJ.jpg\" target=\"_blank\"><img width=\"100%\" src=\"thumbs/narvik-bunkers_RLJ.jpg\"/></a>\n<br>68.49874,17.07662</div>", "iconImage": "circle-red"}, "geometry": {"type": "Point", "coordinates": [17.07662, 68.49874]}}, {"type": "Feature", "properties": {"name": "DWW", "description": "<div style=\"width:100%;\">DWW: <b>Battle Station</b>\n<br><span style=\"font-family: monospace\">high-walled battle station; level ground</span>\n<br><a href=\"thumbs/narvik-bunkers_DWW.jpg\" target=\"_blank\"><img width=\"100%\" src=\"thumbs/narvik-bunkers_DWW.jpg\"/></a>\n<br>68.45035,17.484</div>", "iconImage": "circle-red"}, "geometry": {"type": "Point", "coordinates": [17.484, 68.45035]}}, {"type": "Feature", "properties": {"name": "PGX", "description": "<div style=\"width:100%;\">PGX: <b>Bunker</b>\n<br><span style=\"font-family: monospace\">bunker with straight entrance; multiple bunker rooms; attached tunnel; Luftfiltering A/S \"NATO\" door</span>\n<br><a href=\"thumbs/narvik-bunkers_PGX.jpg\" target=\"_blank\"><img width=\"100%\" src=\"thumbs/narvik-bunkers_PGX.jpg\"/></a>\n<br>68.44255,17.39896</div>", "iconImage": "circle-red"}, "geometry": {"type": "Point", "coordinates": [17.39896, 68.44255]}}, {"type": "Feature", "properties": {"name": "LSW", "description": "<div style=\"width:100%;\">LSW: <b>Bunker</b>\n<br><span style=\"font-family: monospace\">ammunition bunker/shelter</span>\n<br><a href=\"thumbs/narvik-bunkers_LSW.jpg\" target=\"_blank\"><img width=\"100%\" src=\"thumbs/narvik-bunkers_LSW.jpg\"/></a>\n<br>68.44218,17.65297</div>", "iconImage": "circle-red"}, "geometry": {"type": "Point", "coordinates": [17.65297, 68.44218]}}, {"type": "Feature", "properties": {"name": "QBX", "description": "<div style=\"width:100%;\">QBX: <b>Battle Station</b>\n<br><span style=\"font-family: monospace\">battle station</span>\n<br><a href=\"thumbs/narvik-bunkers_QBX.jpg\" target=\"_blank\"><img width=\"100%\" src=\"thumbs/narvik-bunkers_QBX.jpg\"/></a>\n<br>68.47081,17.48373</div>", "iconImage": "circle-red"}, "geometry": {"type": "Point", "coordinates": [17.48373, 68.47081]}}, {"type": "Feature", "properties": {"name": "JBG", "description": "<div style=\"width:100%;\">JBG: <b>Bunker</b>\n<br><span style=\"font-family: monospace\">bunker with straight entrance</span>\n<br><a href=\"thumbs/narvik-bunkers_JBG.jpg\" target=\"_blank\"><img width=\"100%\" src=\"thumbs/narvik-bunkers_JBG.jpg\"/></a>\n<br>68.37204,17.60932</div>", "iconImage": "circle-red"}, "geometry": {"type": "Point", "coordinates": [17.60932, 68.37204]}}, {"type": "Feature", "properties": {"name": "XRV", "description": "<div style=\"width:100%;\">XRV: <b>Pit</b>\n<br><span style=\"font-family: monospace\">pit</span>\n<br><a href=\"thumbs/narvik-bunkers_XRV.jpg\" target=\"_blank\"><img width=\"100%\" src=\"thumbs/narvik-bunkers_XRV.jpg\"/></a>\n<br>68.44267,17.3968</div>", "iconImage": "u-red"}, "geometry": {"type": "Point", "coordinates": [17.3968, 68.44267]}}, {"type": "Feature", "properties": {"name": "XRK", "description": "<div style=\"width:100%;\">XRK: <b>Foundation</b>\n<br><span style=\"font-family: monospace\">rock leveled</span>\n<br><a href=\"thumbs/narvik-bunkers_XRK.jpg\" target=\"_blank\"><img width=\"100%\" src=\"thumbs/narvik-bunkers_XRK.jpg\"/></a>\n<br>68.42236,17.34321</div>", "iconImage": "u-red"}, "geometry": {"type": "Point", "coordinates": [17.34321, 68.42236]}}, {"type": "Feature", "properties": {"name": "TLB", "description": "<div style=\"width:100%;\">TLB: <b>Tunnel</b>\n<br><span style=\"font-family: monospace\">open tunnel, masonry; narrow tunnel entrance; bunker with blast protection</span>\n<br><a href=\"thumbs/narvik-bunkers_TLB.jpg\" target=\"_blank\"><img width=\"100%\" src=\"thumbs/narvik-bunkers_TLB.jpg\"/></a>\n<br>68.46632,17.47707</div>", "iconImage": "rect-red"}, "geometry": {"type": "Point", "coordinates": [17.47707, 68.46632]}}, {"type": "Feature", "properties": {"name": "NSG", "description": "<div style=\"width:100%;\">NSG: <b>Unidentified</b>\n<br><span style=\"font-family: monospace\">unidentified</span>\n<br><a href=\"thumbs/narvik-bunkers_NSG.jpg\" target=\"_blank\"><img width=\"100%\" src=\"thumbs/narvik-bunkers_NSG.jpg\"/></a>\n<br>68.42141,16.74125</div>", "iconImage": "circle-red"}, "geometry": {"type": "Point", "coordinates": [16.74125, 68.42141]}}, {"type": "Feature", "properties": {"name": "PJS", "description": "<div style=\"width:100%;\">PJS: <b>Tunnel</b>\n<br><span style=\"font-family: monospace\">tunnel entrance walled shut; narrow tunnel entrance</span>\n<br><a href=\"thumbs/narvik-bunkers_PJS.jpg\" target=\"_blank\"><img width=\"100%\" src=\"thumbs/narvik-bunkers_PJS.jpg\"/></a>\n<br>68.43591,17.41089</div>", "iconImage": "rect-red"}, "geometry": {"type": "Point", "coordinates": [17.41089, 68.43591]}}, {"type": "Feature", "properties": {"name": "HRD", "description": "<div style=\"width:100%;\">HRD: <b>Trench</b>\n<br><span style=\"font-family: monospace\">trench</span>\n<br><a href=\"thumbs/narvik-bunkers_HRD.jpg\" target=\"_blank\"><img width=\"100%\" src=\"thumbs/narvik-bunkers_HRD.jpg\"/></a>\n<br>68.37222,17.25099</div>", "iconImage": "circle-red"}, "geometry": {"type": "Point", "coordinates": [17.25099, 68.37222]}}, {"type": "Feature", "properties": {"name": "YQP", "description": "<div style=\"width:100%;\">YQP: <b>Bunker</b>\n<br><span style=\"font-family: monospace\">bunker with straight entrance</span>\n<br><a href=\"thumbs/narvik-bunkers_YQP.jpg\" target=\"_blank\"><img width=\"100%\" src=\"thumbs/narvik-bunkers_YQP.jpg\"/></a>\n<br>68.45377,16.71047</div>", "iconImage": "circle-red"}, "geometry": {"type": "Point", "coordinates": [16.71047, 68.45377]}}, {"type": "Feature", "properties": {"name": "VWZ", "description": "<div style=\"width:100%;\">VWZ: <b>Building</b>\n<br><span style=\"font-family: monospace\">bunker-style building; partial bunker roof</span>\n<br><a href=\"thumbs/narvik-bunkers_VWZ.jpg\" target=\"_blank\"><img width=\"100%\" src=\"thumbs/narvik-bunkers_VWZ.jpg\"/></a>\n<br>68.43427,17.39401</div>", "iconImage": "circle-red"}, "geometry": {"type": "Point", "coordinates": [17.39401, 68.43427]}}, {"type": "Feature", "properties": {"name": "XPP", "description": "<div style=\"width:100%;\">XPP: <b>Bunker</b>\n<br><span style=\"font-family: monospace\">bunker; embrasure; removed</span>\n<br><a href=\"thumbs/narvik-bunkers_XPP.jpg\" target=\"_blank\"><img width=\"100%\" src=\"thumbs/narvik-bunkers_XPP.jpg\"/></a>\n<br>68.43929,17.42252</div>", "iconImage": "cross-red"}, "geometry": {"type": "Point", "coordinates": [17.42252, 68.43929]}}, {"type": "Feature", "properties": {"name": "DPD", "description": "<div style=\"width:100%;\">DPD: <b>Bunker</b>\n<br><span style=\"font-family: monospace\">ammunition bunker/shelter</span>\n<br><a href=\"thumbs/narvik-bunkers_DPD.jpg\" target=\"_blank\"><img width=\"100%\" src=\"thumbs/narvik-bunkers_DPD.jpg\"/></a>\n<br>68.43547,17.3954</div>", "iconImage": "circle-red"}, "geometry": {"type": "Point", "coordinates": [17.3954, 68.43547]}}, {"type": "Feature", "properties": {"name": "GBL", "description": "<div style=\"width:100%;\">GBL: <b>Bunker</b>\n<br><span style=\"font-family: monospace\">bunker with straight entrance</span>\n<br><a href=\"thumbs/narvik-bunkers_GBL.jpg\" target=\"_blank\"><img width=\"100%\" src=\"thumbs/narvik-bunkers_GBL.jpg\"/></a>\n<br>68.43509,17.44055</div>", "iconImage": "circle-red"}, "geometry": {"type": "Point", "coordinates": [17.44055, 68.43509]}}, {"type": "Feature", "properties": {"name": "XNR", "description": "<div style=\"width:100%;\">XNR: <b>Foundation</b>\n<br><span style=\"font-family: monospace\">rock leveled</span>\n<br><a href=\"thumbs/narvik-bunkers_XNR.jpg\" target=\"_blank\"><img width=\"100%\" src=\"thumbs/narvik-bunkers_XNR.jpg\"/></a>\n<br>68.44054,17.39872</div>", "iconImage": "u-red"}, "geometry": {"type": "Point", "coordinates": [17.39872, 68.44054]}}, {"type": "Feature", "properties": {"name": "DDP", "description": "<div style=\"width:100%;\">DDP: <b>Trench</b>\n<br><span style=\"font-family: monospace\">trench</span>\n<br><a href=\"thumbs/narvik-bunkers_DDP.jpg\" target=\"_blank\"><img width=\"100%\" src=\"thumbs/narvik-bunkers_DDP.jpg\"/></a>\n<br>68.4358,17.39413</div>", "iconImage": "circle-red"}, "geometry": {"type": "Point", "coordinates": [17.39413, 68.4358]}}, {"type": "Feature", "properties": {"name": "VQR", "description": "<div style=\"width:100%;\">VQR: <b>Unidentified</b>\n<br><span style=\"font-family: monospace\">unidentified</span>\n<br><a href=\"thumbs/narvik-bunkers_VQR.jpg\" target=\"_blank\"><img width=\"100%\" src=\"thumbs/narvik-bunkers_VQR.jpg\"/></a>\n<br>68.43971,17.39222</div>", "iconImage": "circle-red"}, "geometry": {"type": "Point", "coordinates": [17.39222, 68.43971]}}, {"type": "Feature", "properties": {"name": "NMS", "description": "<div style=\"width:100%;\">NMS: <b>Bunker</b>\n<br><span style=\"font-family: monospace\">bunker with no visible entrance</span>\n<br><a href=\"thumbs/narvik-bunkers_NMS.jpg\" target=\"_blank\"><img width=\"100%\" src=\"thumbs/narvik-bunkers_NMS.jpg\"/></a>\n<br>68.42532,17.43008</div>", "iconImage": "circle-red"}, "geometry": {"type": "Point", "coordinates": [17.43008, 68.42532]}}, {"type": "Feature", "properties": {"name": "DLX", "description": "<div style=\"width:100%;\">DLX: <b>Pit</b>\n<br><span style=\"font-family: monospace\">pit</span>\n<br><a href=\"thumbs/narvik-bunkers_DLX.jpg\" target=\"_blank\"><img width=\"100%\" src=\"thumbs/narvik-bunkers_DLX.jpg\"/></a>\n<br>68.44159,17.39714</div>", "iconImage": "u-red"}, "geometry": {"type": "Point", "coordinates": [17.39714, 68.44159]}},